Continents,Country,Lat,Long,Place
North America,USA,40.1736547,-85.4941396,"Yorktown, Indiana"
North America,USA,37.7800592,-86.4605337,"Hardinsburg, Kentucky"
North America,USA,43.635336,-113.299953,"Arco, Idaho"
North America,USA,39.9527237,-75.1635262,"Philadelphia, Pennsylvania"
North America,USA,40.4862174,-74.4518173,"New Brunswick, New Jersey"
North America,USA,41.6397857,-87.4548466,"East Chicago, Indiana"
North America,USA,42.291707,-85.5872286,"Kalamazoo, Michigan"
North America,USA,40.6501038,-73.9495823,"Brooklyn, New York"
North America,USA,36.6930592,-95.9078261,"Washington, Oklahoma"
North America,USA,30.6485191,-91.1564961,"Zachary, Louisiana"
North America,USA,33.9836962,-101.3368743,"Floydada, Texas"
North America,USA,40.2225481,-84.484396,"Versailles, Ohio"
North America,USA,41.6253116,-87.7175491,"Midlothian, Illinois"
North America,USA,40.7443668,-74.0875763,"Kearney, New Jersey"
North America,USA,40.8860164,-74.0072568,"Teaneck, New Jersey"
North America,USA,37.7790262,-122.4199061,"San Francisco, California"
North America,USA,44.9706705,-93.2682241,"Minneapolis, Minnesota"
North America,USA,42.8867166,-78.8783922,"Buffalo, New York"
North America,USA,29.9499323,-90.0701156,"New Orleans, Louisiana"
North America,USA,30.8899124,-96.2946839,"Edge, Texas"
North America,USA,37.7522783,-84.7611039,"Burgin, Kentucky"
North America,USA,46.4085273,-105.840981,"Miles City, Montana"
North America,USA,35.4906115,-86.069633,"Coffee County, Tennessee"
North America,USA,41.1749635,-75.9695233,"Luzerne, Pennsylvania"
North America,USA,41.788642,-89.6962194,"Sterling, Illinois"
North America,USA,40.2663107,-76.8861122,"Harrisburg, Pennsylvania"
North America,USA,32.0809263,-81.0911768,"Savannah, Georgia"
North America,USA,40.4848003,-106.8317359,"Steamboat Springs, Colorado"
North America,USA,40.7795455,-74.0237512,"Union City, New Jersey"
North America,USA,38.5250491,-89.1334037,"Centralia, Illinois"
North America,USA,42.5846773,-87.8212263,"Kenosha, Wisconsin"
North America,USA,39.7683331,-86.1583502,"Indianapolis, Indiana"
North America,USA,40.7127281,-74.0060152,"New York, New York"
North America,USA,40.7596198,-111.8867975,"Salt Lake City, Utah"
North America,USA,36.9064438,-88.2236421,"Birmingham, Kentucky"
North America,USA,41.8755616,-87.6244212,"Chicago, Illinois"
North America,USA,38.8482602,-90.0768875,"Roxana, Illinois"
North America,USA,42.7249686,-110.9318384,"Afton, Wyoming"
North America,USA,46.7207737,-92.1040796,"Superior, Wisconsin"
North America,USA,39.3520084,-83.3826928,"Greenfield, Ohio"
North America,USA,40.0959055,-80.724526,"Martins Ferry, Ohio"
North America,USA,32.728072,-99.2946024,"Albany, Texas"
North America,USA,42.3264181,-122.8718605,"Medford, Oregon"
North America,USA,34.0536909,-118.2427666,"Los Angeles, California"
North America,USA,31.6035129,-94.6554874,"Nacogdoches, Texas"
North America,USA,35.6172918,-87.8394705,"Linden, Tennessee"
North America,USA,38.4192496,-82.445154,"Huntington, West Virginia"
North America,USA,32.7762719,-96.7968559,"Dallas, Texas"
North America,USA,46.9932847,-93.5985615,"Hill City, Minnesota"
North America,USA,38.5367471,-82.6829406,"Ironton, Ohio"
North America,USA,40.5697893,-79.7647705,"New Kensington, Pennsylvania"
North America,USA,47.7370442,-95.5131887,"Gonvick, Minnesota"
North America,USA,37.8399791,-94.7082882,"Fort Scott, Kansas"
North America,USA,38.3172715,-88.9031201,"Mount Vernon, Illinois"
North America,USA,38.6592152,-87.172789,"Washington, Indiana"
North America,USA,48.82723,-100.445698,"Bottineau, North Dakota"
Europe,Poland,52.2319237,21.0067265,"Warsaw, Poland"
North America,USA,42.3875968,-71.0994968,"Somerville, Massachusetts"
North America,USA,39.8286897,-84.8898521,"Richmond, Indiana"
North America,USA,38.6268039,-90.1994097,"St. Louis, Missouri"
North America,USA,40.7097227,-74.3056934,"New Jersey, New Jersey"
Asia,United Arab Emirates,25.271841,55.3034828,"El Mina, Texas"
North America,USA,43.08436,-79.0614686,"Niagara Falls, New York"
North America,USA,40.868154,-73.425676,"Huntington, New York"
North America,USA,35.9372285,-79.084223,"Lowlands, North Carolina"
North America,USA,41.5263603,-88.0840212,"Joliet, Illinois"
North America,USA,36.7394421,-119.7848307,"Fresno, California"
North America,USA,40.8517224,-73.0992188,"Long Island, New York"
North America,USA,38.1509077,-84.6838344,"Midway, Kentucky"
North America,USA,32.8406946,-83.6324022,"Macon, Georgia"
North America,USA,47.52326,-92.536571,"Virginia, Minnesota"
North America,USA,40.7003793,-73.5929056,"Uniondale, New York"
North America,USA,37.4019918,-86.8758256,"Beaver Dam, Kentucky"
North America,USA,41.6797578,-87.4944873,"Whiting, Indiana"
North America,USA,37.4839373,-94.6419037,"Yale, Kansas"
North America,USA,40.3611643,-83.7596557,"Bellefontaine, Ohio"
North America,USA,32.753177,-97.3327459,"Fort Worth, Texas"
North America,USA,38.7014389,-90.1487199,"Granite City, Illinois"
North America,USA,37.8044557,-122.2713563,"Oakland, California"
North America,USA,36.200055,-86.5186054,"Mt. Juliet, Tennessee"
North America,USA,38.6381245,-84.5604977,"Williamstown, Kentucky"
North America,USA,37.7478572,-84.2946539,"Richmond, Kentucky"
North America,USA,41.0799898,-85.1386015,"Fort Wayne, Indiana"
North America,USA,19.5895548,-155.4486983,"Hilo, Hawaii"
North America,USA,38.7641817,-90.5292573,"Charlestown, Missouri"
North America,USA,40.3267407,-78.9219698,"Johnstown, Pennsylvania"
North America,USA,41.232203,-103.891891,"Bushnell, Nebraska"
North America,USA,40.0581205,-82.4012643,"Newark, Ohio"
North America,USA,44.9504037,-93.1015026,"St. Paul, Minnesota"
North America,USA,42.7260523,-87.7825242,"Racine, Wisconsin"
North America,USA,34.7319656,-112.0265462,"Clemenceau, Arizona"
North America,USA,47.6369051,-95.8864205,"McIntosh, Minnesota"
North America,United States of America,34.047863,-118.245353,"Los Angelse, California"
North America,USA,40.8125881,-76.1416034,"Mahanoy City, Pennsylvania"
North America,USA,41.6786754,-83.5127283,"Toledo, Ohio"
North America,USA,40.5875371,-86.6750059,"Delphi, Indiana"
North America,USA,39.1836082,-96.5716694,"Manhattan, Kansas"
North America,USA,40.735657,-74.1723667,"Newark, New Jersey"
North America,United States of America,36.315483,-76.605448,"Golden Valley, North Carolina"
North America,USA,41.6458633,-88.6217432,"Sandwich, Illinois"
North America,USA,34.065846,-117.6484304,"Ontario, California"
North America,USA,37.1169666,-87.8391211,"Caldwell, Kentucky"
North America,Canada,45.4972159,-73.6103642,"Montreal, Canada"
North America,USA,42.866632,-106.313081,"Casper, Wyoming"
North America,USA,44.0500054,-91.6392294,"Winona, Minnesota"
North America,USA,40.2338438,-111.6585337,"Provo, Utah"
North America,USA,39.0836224,-84.508371,"Covington, Kentucky"
North America,USA,43.1500081,-93.1813729,"Grand View, Iowa"
North America,USA,41.2403596,-75.9446428,"Plymouth, Pennsylvania"
North America,USA,40.7433066,-74.0323752,"Hoboken, New Jersey"
North America,USA,34.7464809,-92.2895948,"Little Rock, Arkansas"
North America,USA,44.311461,-96.79844,"Brookings, South Dakota"
North America,USA,41.7244885,-81.245657,"Painesville, Ohio"
North America,USA,40.7281575,-74.0776417,"Jersey City, New Jersey"
North America,USA,33.7690164,-118.1916048,"Long Beach, California"
North America,USA,41.6047148,-82.7064804,"Kelleys Island, Ohio"
North America,USA,32.44645,-99.7475905,"Abilene, Texas"
North America,USA,42.2713945,-89.093966,"Rockford, Illinois"
North America,USA,40.5114735,-85.6540606,"Grant County, Indiana"
North America,USA,39.7089362,-90.7245722,"Griggsville, Illinois"
North America,USA,38.5815719,-121.4943996,"Sacramento, California"
North America,USA,39.3331197,-82.9824019,"Chillicothe, Ohio"
North America,USA,38.3505995,-81.6332812,"Charleston, West Virginia"
North America,USA,32.4254325,-93.1082193,"Sailes, Louisiana"
North America,USA,37.6217133,-88.055585,"Henshaw, Kentucky"
North America,USA,44.797194,-106.956179,"Sheridan, Wyoming"
North America,USA,41.6021292,-87.3371372,"Gary, Indiana"
North America,USA,46.7729322,-92.1251218,"Duluth, Minnesota"
North America,USA,40.3478472,-79.864215,"McKeesport, Pennsylvania"
North America,USA,40.6524927,-73.7914214,"Queens, New York"
North America,USA,35.7478769,-95.3696909,"Muskogee, Oklahoma"
North America,USA,40.4417355,-79.8819942,"Wilkinsburg, Pennsylvania"
North America,USA,39.7589478,-84.1916069,"Dayton, Ohio"
North America,USA,40.8014826,-75.6101868,"Palmerton, Pennsylvania"
North America,USA,40.3634026,-79.8664375,"West Mifflin, Pennsylvania"
North America,USA,37.6280602,-98.7485305,"Pratt, Kansas"
North America,USA,30.0860459,-94.1018461,"Beaumont, Texas"
North America,USA,40.4236801,-79.8828275,"Swissvale, Pennsylvania"
North America,Canada,49.2608724,-123.1139529,"Vancouver, Canada"
North America,USA,40.7365804,-73.8783932,"Elmhurst, New York"
North America,USA,39.201941,-96.304998,"Wamego, Kansas"
North America,USA,38.4919935,-87.2786244,"Petersburg, Indiana"
North America,USA,37.496904,-122.3330573,"San Mateo, California"
North America,USA,39.944784,-83.2688045,"West Jefferson, Ohio"
North America,USA,41.9847505,-88.0797933,"Roselle, Illinois"
North America,USA,40.7127281,-74.0060152,"New York City, New York"
North America,USA,34.093214,-118.3196124,"Hollywood, California"
North America,USA,43.076178,-76.000753,"Minoa, New York"
North America,USA,42.1294712,-80.0852695,"Erie, Pennsylvania"
North America,USA,40.2170575,-74.7429463,"Trenton, New Jersey"
North America,USA,30.4459596,-91.18738,"Baton Rouge, Louisiana"
North America,USA,37.7433757,-87.7039056,"Corydon, Kentucky"
North America,USA,36.9486986,-84.0968761,"Corbin, Kentucky"
North America,USA,39.2908816,-76.610759,"Baltimore, Maryland"
North America,USA,38.2097987,-84.2529869,"Paris, Kentucky"
North America,USA,38.8611619,-86.4872149,"Bedford, Indiana"
North America,USA,37.2939322,-87.1233292,"Central City, Kentucky"
North America,USA,40.9115386,-73.7826363,"New Rochelle, New York"
North America,USA,40.4905905,-87.0964025,"Otterbein, Indiana"
North America,USA,43.157285,-77.615214,"Rochester, New York"
North America,USA,47.427155,-92.937689,"Hibbing, Minnesota"
Europe,United Kingdom,50.9137978,-1.3990405,"Southampton, United Kingdom"
North America,USA,36.2393013,-80.8445152,"Jonesville, North Carolina"
North America,USA,45.6909662,-90.3978225,"Phillips, Wisconsin"
North America,USA,45.791619,-97.750937,"Britton, South Dakota"
North America,USA,40.2452976,-75.6496424,"Pottstown, Pennsylvania"
North America,USA,40.8504855,-73.8404036,"Bronx, New York"
North America,USA,36.9092773,-121.7529071,"Watsonville, California"
North America,USA,40.4416941,-79.9900861,"Pittsburgh, Pennsylvania"
North America,USA,42.3315509,-83.0466403,"Detroit, Michigan"
North America,USA,39.0924792,-94.4137923,"Independence, Missouri"
North America,USA,40.7455316,-73.9484995,"Long Island City, New York"
North America,USA,34.3623149,-92.8129463,"Malvern, Arkansas"
North America,USA,37.7742152,-87.1133304,"Owensboro, Kentucky"
North America,USA,32.2412672,-92.7159854,"Jonesboro, Louisiana"
North America,USA,39.0429506,-122.9158293,"Lakeport, California"
North America,USA,39.4667025,-87.4139119,"Terre Haute, Indiana"
North America,USA,40.4939337,-85.148304,"Pennville, Indiana"
North America,USA,32.5093109,-92.1193012,"Monroe, Louisiana"
North America,USA,39.7392364,-104.9848623,"Denver, Colorado"
North America,USA,39.8950881,-92.1816013,"Leonard, Missouri"
North America,USA,42.466763,-70.9494939,"Lynn, Massachusetts"
North America,USA,40.7720145,-73.9302673,"Astoria, New York"
North America,USA,34.2257282,-77.9447107,"Wilmington, North Carolina"
North America,USA,38.592339,-90.3564329,"Webster Groves, Missouri"
North America,USA,41.3082138,-72.9250518,"New Haven, Connecticut"
North America,USA,32.1632079,-91.720681,"Winnsboro, Louisiana"
North America,USA,42.6389216,-83.2910468,"Pontiac, Michigan"
North America,USA,38.2542376,-85.759407,"Louisville, Kentucky"
North America,USA,38.8948932,-77.0365529,"Washington, District of Columbia"
North America,USA,37.9300513,-89.5489852,"Campbell Hill, Illinois"
North America,USA,33.1204062,-89.4659062,"Ethel, Mississippi"
North America,USA,39.9242266,-83.8088172,"Springfield, Ohio"
North America,USA,35.4729886,-97.5170536,"Oklahoma City, Oklahoma"
North America,USA,45.5202471,-122.6741949,"Portland, Oregon"
North America,USA,37.102841,-85.3063504,"Columbia, Kentucky"
North America,USA,38.1448015,-83.7640847,"Owingsville, Kentucky"
North America,USA,36.8589817,-82.9040517,"Keokee, Virginia"
North America,USA,35.4895085,-97.1636408,"Harrah, Oklahoma"
North America,USA,36.9647458,-89.0893387,"Wickliffe, Kentucky"
North America,USA,43.9416755,-90.6397264,"Monroe, Wisconsin"
North America,USA,36.8297937,-84.8491126,"Monticello, Kentucky"
North America,USA,41.347817,-75.7564267,"Duryea, Pennsylvania"
North America,USA,35.0645319,-88.8908918,"Middleton, Tennessee"
North America,USA,32.4078632,-87.0207473,"Selma, Alabama"
North America,USA,41.368092,-89.4648145,"Princeton, Illinois"
North America,USA,41.2587459,-95.9383758,"Omaha, Nebraska"
North America,USA,39.8381691,-75.1526774,"Woodbury, New Jersey"
North America,USA,38.599243,-83.3187952,"Vanceburg, Kentucky"
North America,USA,34.0991325,-118.1086041,"San Gabriel, California"
North America,USA,32.6154278,-93.2868354,"Minden, Louisiana"
North America,USA,37.7644952,-89.3350888,"Murphysboro, Illinois"
North America,USA,36.1772797,-87.3397319,"Charlotte, Tennessee"
North America,USA,38.1955157,-81.4934985,"Chelyan, West Virginia"
North America,USA,35.1084931,-77.0441143,"New Bern, North Carolina"
North America,USA,32.8551326,-90.4056469,"Yazoo City, Mississippi"
North America,USA,37.8206503,-82.7290471,"Williamsport, Kentucky"
North America,USA,41.083064,-81.518485,"Akron, Ohio"
North America,USA,41.764582,-72.6908547,"Hartford, Connecticut"
North America,USA,40.5583739,-85.6591442,"Marion, Indiana"
Asia,China,49.6,117.43333,"Harbin Manchuria, China"
North America,USA,39.9356016,-91.4098727,"Quincy, Illinois"
North America,USA,38.2145286,-85.6681442,"Farmington, Kentucky"
North America,USA,37.7209409,-81.8717854,"Greenville County, Virginia"
North America,USA,39.849557,-75.3557458,"Chester, Pennsylvania"
North America,USA,37.5467136,-87.983914,"Sturgis, Kentucky"
North America,USA,30.6677037,-94.3813066,"Hillister, Texas"
North America,USA,32.7026116,-103.1360403,"Hobbs, New Mexico"
North America,USA,40.3886847,-78.6722411,"Portage, Pennsylvania"
North America,USA,37.1914915,-82.7134905,"Neon, Kentucky"
North America,USA,40.6053825,-73.7551326,"Far Rockaway, New York"
North America,USA,42.2625932,-71.8022934,"Worcester, Massachusetts"
North America,USA,33.7490987,-84.3901849,"Atlanta, Georgia"
North America,USA,31.4648357,-100.4398442,"San Angelo, Texas"
North America,USA,43.2341813,-86.2483921,"Muskegon, Michigan"
North America,USA,34.9531295,-120.4358577,"Santa Maria, California"
North America,USA,34.5784341,-89.3275754,"Bethlehem, Mississippi"
North America,USA,30.2711286,-97.7436995,"Austin, Texas"
North America,USA,34.9129318,-79.8220026,"Cordova, North Carolina"
North America,USA,36.1556805,-95.9929113,"Tulsa, Oklahoma"
North America,USA,43.0349931,-87.922497,"Milwaukee, Wisconsin"
North America,USA,39.5150576,-84.3982763,"Middletown, Ohio"
North America,USA,34.769536,-92.2670941,"North Little Rock, Arkansas"
North America,USA,48.1172301,-96.1770667,"Thief River Falls, Minnesota"
North America,USA,40.3491604,-84.1593008,"Shelby, Ohio"
North America,USA,30.3321838,-81.655651,"Jacksonville, Florida"
North America,USA,37.366328,-81.1026607,"Princeton, West Virginia"
North America,USA,35.7306327,-91.1984601,"Tuckerman, Arkansas"
North America,USA,40.1936892,-85.3865271,"Muncie, Indiana"
North America,USA,39.6581163,-83.7349236,"Jamestown, Ohio"
North America,USA,29.396013,-94.9175485,"Texas City, Texas"
North America,USA,43.3678937,-124.2174647,"Coos Bay, Oregon"
North America,USA,36.0998131,-80.2440518,"Winston-Salem, North Carolina"
North America,USA,36.1622296,-86.7743531,"Nashville, Tennessee"
North America,USA,29.8826436,-97.9405828,"San Marcos, Texas"
North America,USA,39.9622601,-83.0007065,"Columbus, Ohio"
North America,USA,36.8411336,-83.22678,"Harlan, Kentucky"
North America,USA,35.1569986,-99.0603546,"Rocky, Oklahoma"
North America,USA,42.8142432,-73.9395687,"Schenectady, New York"
North America,USA,29.7589382,-95.3676974,"Houston, Texas"
North America,USA,32.7448687,-92.7137631,"Hico, Louisiana"
North America,USA,33.8026107,-93.3810057,"Prescott, Arkansas"
North America,USA,32.3643098,-88.703656,"Meridian, Mississippi"
North America,USA,40.6639916,-74.2107006,"Elizabeth, New Jersey"
North America,USA,36.0956918,-79.4377991,"Burlington, North Carolina"
North America,USA,33.0369867,-117.2919818,"Encinitas, California"
North America,USA,39.4806056,-86.0549863,"Franklin, Indiana"
North America,USA,33.5206824,-86.8024326,"Birmingham, Alabama"
North America,USA,41.6105983,-86.7225227,"La Porte, Indiana"
North America,USA,38.0933811,-88.5356076,"McLeansboro, Illinois"
North America,USA,41.2331116,-80.4934035,"Sharon, Pennsylvania"
North America,USA,26.6845104,-80.6675577,"Belle Glade, Florida"
North America,USA,35.7333312,-81.3442915,"Hickory, North Carolina"
North America,USA,40.6916081,-75.2099866,"Easton, Pennsylvania"
North America,USA,35.0886963,-92.4421011,"Conway, Arkansas"
North America,USA,36.0726355,-79.7919754,"Greensboro, North Carolina"
North America,USA,42.2792625,-71.416172,"Framingham, Massachusetts"
North America,USA,32.7757026,-91.9072506,"Bastrop, Louisiana"
North America,USA,42.0362009,-88.2861524,"Elgin, Illinois"
North America,USA,37.9747645,-87.5558483,"Evansville, Indiana"
North America,USA,40.875891,-81.4023356,"North Canton, Ohio"
North America,USA,31.5604442,-91.403171,"Natchez, Mississippi"
North America,USA,26.640628,-81.8723084,"Fort Myers, Florida"
North America,USA,38.2211656,-90.3790094,"Crystal City, Missouri"
North America,USA,35.996653,-78.9018053,"Durham, North Carolina"
North America,USA,33.6783336,-118.0000166,"Huntington Beach, California"
North America,USA,37.3433974,-85.3419069,"Campbellsville, Kentucky"
North America,USA,41.5051613,-81.6934446,"Cleveland, Ohio"
North America,USA,46.0753795,-113.089332,"Deer Lodge, Montana"
North America,USA,40.5098259,-74.7840518,"Riverside, New Jersey"
North America,USA,31.2837867,-90.4684315,"Summit, Mississippi"
North America,USA,25.7742658,-80.1936589,"Miami, Florida"
North America,USA,43.2128473,-75.4557304,"Rome, New York"
North America,USA,33.9533546,-117.3961623,"Riverside, California"
North America,USA,37.5997548,-79.1483701,"Amherst, Virginia"
North America,USA,38.0652286,-78.9058877,"Waynesboro, Virginia"
North America,USA,42.6166946,-83.1797014,"River Rouge, Michigan"
North America,USA,33.5822077,-96.1785028,"Bonham, Texas"
North America,USA,47.6038321,-122.3300624,"Seattle, Washington"
North America,USA,33.924831,-118.2024154,"Lynwood, California"
North America,USA,40.7989522,-81.3784445,"Canton, Ohio"
North America,USA,39.4048503,-77.9120406,"Charlestown, West Virginia"
North America,USA,27.9477595,-82.458444,"Tampa, Florida"
North America,USA,32.4773643,-91.7548473,"Rayville, Louisiana"
North America,USA,42.3750997,-71.1056157,"Cambridge, Massachusetts"
North America,USA,39.900076,-79.7164326,"Uniontown, Pennsylvania"
North America,USA,31.7149082,-83.2526545,"Fitzgerald, Georgia"
North America,USA,33.0792941,-90.3225881,"Thornton, Mississippi"
North America,USA,46.975371,-123.815722,"Aberdeen, Washington"
North America,USA,47.2495798,-122.4398746,"Tacoma, Washington"
North America,USA,31.4146108,-86.0677243,"Elba, Alabama"
North America,USA,37.1092162,-87.8819595,"Princeton, Kentucky"
North America,USA,35.5939671,-89.262291,"Brownsville, Tennessee"
North America,USA,40.4189566,-80.5895167,"Weirton, West Virginia"
North America,USA,39.1134562,-94.626497,"Kansas City, Kansas"
North America,USA,37.5385087,-77.43428,"Richmond, Virginia"
North America,USA,41.5067003,-90.5151342,"Moline, Illinois"
North America,USA,34.0821496,-117.8721238,"Covina, California"
North America,USA,42.3602534,-71.0582912,"Boston, Massachusetts"
North America,USA,35.272584,-120.6570944,"San Luis Obispo, California"
North America,USA,30.9038252,-84.5754768,"Bainbridge, Georgia"
North America,USA,35.1490215,-90.0516285,"Memphis, Tennessee"
Asia,Georgia,41.6494002,41.6322463,"Sparta, Georgia"
North America,USA,39.0889469,-84.4919524,"Newport, Kentucky"
North America,USA,42.3750976,-70.982827,"Winthrop, Massachusetts"
North America,USA,32.4609764,-84.9877094,"Columbus, Georgia"
North America,USA,33.0965153,-90.4967573,"Silver City, Mississippi"
North America,USA,33.1731769,-84.914936,"Hogansville, Georgia"
North America,United States of America,32.551311,-94.385225,"Herleton, Texas"
North America,USA,31.5265557,-91.4459501,"Carthage, Mississippi"
North America,United States of America,33.443446,-90.608662,"Indianaola, Mississippi"
North America,USA,40.6102386,-80.267726,"Aliquippa, Pennsylvania"
North America,USA,34.9809996,-79.2241998,"Raeford, North Carolina"
North America,USA,39.4961458,-88.1761521,"Charleston, Illinois"
North America,USA,41.1175966,-73.4078968,"Norwalk, Connecticut"
North America,USA,39.9184461,-75.2590721,"Darby, Pennsylvania"
North America,USA,36.8453199,-86.887219,"Russellville, Kentucky"
North America,USA,33.942215,-118.1235646,"Downey, California"
North America,USA,34.2367621,-84.4907621,"Canton, Georgia"
North America,USA,42.3928151,-83.0496438,"Hamtramck, Michigan"
North America,USA,32.2990384,-90.1847691,"Jackson, Mississippi"
North America,USA,37.8708393,-122.2728639,"Berkeley, California"
North America,USA,35.473745,-81.2545251,"Lincolnton, North Carolina"
North America,USA,42.0267703,-93.6170554,"Ames, Iowa"
North America,USA,37.179496,-85.9069175,"Horse Cave, Kentucky"
North America,USA,36.7533781,-86.1905424,"Scottsville, Kentucky"
North America,USA,33.8534421,-91.0278863,"Rosedale, Mississippi"
North America,USA,32.9021377,-80.6672631,"Walterboro, South Carolina"
North America,USA,43.8496359,-90.8080669,"Lacrosse, Wisconsin"
North America,USA,34.979635,-90.029399,"Carrolton, Mississippi"
North America,USA,27.197983,-80.2519175,"Stuart, Florida"
North America,USA,34.7151939,-81.6237462,"Union, South Carolina"
North America,USA,34.3192636,-91.8473565,"Altheimer, Arkansas"
North America,USA,33.3823635,-86.9172047,"Bessemer, Alabama"
North America,USA,40.7570429,-72.9392727,"Bellport, New York"
North America,USA,39.6444898,-86.8647316,"Greencastle, Indiana"
South America,Colombia,4.6439392,-74.1027477,"Columbia, Louisiana"
North America,USA,40.7654301,-73.8174291,"Flushing, New York"
North America,USA,36.1018163,-78.4580543,"Franklinton, North Carolina"
North America,USA,35.3738712,-119.0194639,"Bakersfield, California"
North America,USA,42.3636331,-87.8447938,"Waukegan, Illinois"
North America,USA,42.0447388,-87.6930459,"Evanston, Illinois"
North America,USA,39.3642852,-74.4229351,"Atlantic City, New Jersey"
North America,USA,32.6126381,-90.0367512,"Canton, Mississippi"
North America,USA,37.9577016,-121.2907796,"Stockton, California"
North America,USA,31.8832085,-85.4539203,"Clayton, Alabama"
North America,USA,27.7477253,-97.4014129,"Corpus Christi, Texas"
North America,United States of America,32.75042,-83.50018,"Talbottom, Georgia"
North America,USA,34.4942683,-89.0078418,"New Albany, Mississippi"
North America,USA,40.6574186,-73.6450664,"Rockville Centre, New York"
North America,USA,44.9596017,-89.6298239,"Wausau, Wisconsin"
North America,USA,34.4443243,-86.934547,"Hartselle, Alabama"
North America,USA,32.6400541,-117.0841955,"Chula Vista, California"
North America,USA,33.8358492,-118.3406288,"Torrance, California"
North America,USA,35.2081695,-82.2384479,"Tryon, North Carolina"
North America,USA,39.1014537,-84.5124602,"Cincinnati, Ohio"
North America,USA,41.8791979,-87.8431155,"Maywood, Illinois"
Europe,Germany,50.1106444,8.6820917,"Frankfurt, Germany"
North America,USA,37.9725501,-89.053408,"Christopher, Illinois"
North America,USA,37.5832541,-81.3804607,"Mullens, West Virginia"
North America,USA,41.8500997,-71.4661703,"North Providence, Rhode Island"
North America,USA,48.7544012,-122.4788361,"Bellingham, Washington"
North America,USA,33.4709714,-81.9748429,"Augusta, Georgia"
North America,USA,38.3172715,-88.9031201,"Mt. Vernon, Illinois"
North America,USA,44.7606441,-85.6165301,"Traverse City, Michigan"
North America,USA,42.5006217,-90.6647967,"Dubuque, Iowa"
North America,USA,35.0271856,-79.2432785,"Hoke, North Carolina"
North America,USA,39.9448402,-75.1198911,"Camden, New Jersey"
North America,USA,40.2239981,-74.0478216,"Neptune, New Jersey"
North America,United States of America,32.941055,-90.870691,"Rolling Ford, Mississippi"
North America,USA,33.5162315,-90.1795281,"Greenwood, Mississippi"
North America,USA,41.6100344,-87.6467132,"Harvey, Illinois"
North America,USA,34.7590477,-79.6106104,"Gibson, North Carolina"
North America,USA,34.0007493,-81.0343313,"Columbia, South Carolina"
North America,USA,39.4142186,-77.4109269,"Frederick, Maryland"
North America,USA,36.0217938,-81.9295579,"Crossnore, North Carolina"
North America,USA,31.5782062,-84.1556809,"Albany, Georgia"
North America,USA,47.0034291,-123.4087692,"Elma, Washington"
North America,USA,31.8284857,-87.3216563,"Vredenburgh, Alabama"
North America,USA,40.7556561,-73.5876273,"Westbury, New York"
North America,USA,41.9758872,-91.6704053,"Cedar Rapids, Iowa"
North America,USA,37.2738215,-79.9602021,"Roanoke, Virginia"
North America,USA,34.2753247,-81.6188633,"Newberry, South Carolina"
North America,USA,32.4084765,-91.1867771,"Tallulah, Louisiana"
North America,USA,41.2455927,-89.9248303,"Kewanee, Illinois"
North America,USA,38.3226154,-75.2176892,"Berlin, Maryland"
North America,USA,39.100105,-94.5781416,"Kansas City, Missouri"
North America,USA,40.884267,-72.3895296,"Southampton, New York"
North America,USA,32.7678288,-117.0230839,"La Mesa, California"
North America,United States of America,32.75042,-83.50018,"Atlabta, Georgia"
North America,USA,37.1922068,-98.0835849,"Harper, Kansas"
North America,USA,41.8239891,-71.4128343,"Providence, Rhode Island"
North America,USA,40.1573365,-74.8322796,"Levittown, Pennsylvania"
North America,USA,40.6053825,-73.7551326,"Rockaway, New York"
North America,USA,38.9719384,-95.2359496,"Lawrence, Kansas"
North America,USA,32.3669656,-86.3006485,"Montgomery, Alabama"
North America,USA,33.1958696,-117.3794834,"Oceanside, California"
North America,USA,45.7874957,-108.49607,"Billings, Montana"
North America,USA,28.5421097,-81.3790388,"Orlando, Florida"
North America,USA,39.2929793,-80.3650163,"Berkley, West Virginia"
North America,USA,34.4221319,-119.7026673,"Santa Barbara, California"
North America,USA,38.811063,-89.9017112,"Madison, Illinois"
North America,USA,39.2085354,-84.5501874,"Hamilton, Ohio"
North America,USA,33.7358518,-118.2922934,"San Pedro, California"
North America,USA,48.112779,-98.86512,"Devils Lake, North Dakota"
North America,USA,33.8581591,-92.9882233,"Ark City, Kansas"
North America,USA,31.311248,-92.4449087,"Alexandria, Louisiana"
North America,USA,40.924271,-98.338685,"Grand Island, Nebraska"
North America,USA,41.6833813,-86.2500066,"South Bend, Indiana"
North America,USA,34.2000784,-118.5369884,"Reseda, California"
North America,USA,34.851354,-82.3984882,"Greenville, South Carolina"
North America,USA,35.0081476,-91.2512373,"Cotton Plant, Arkansas"
North America,USA,42.0897965,-76.8077338,"Elmira, New York"
North America,USA,32.4709761,-85.0007653,"Phenix City, Alabama"
North America,USA,32.7174209,-117.1627714,"San Diego, California"
North America,USA,41.1670412,-73.2048348,"Bridgeport, Connecticut"
North America,USA,33.1054039,-88.5608767,"Macon, Mississippi"
North America,USA,32.7725053,-108.2793701,"Silver City, New Mexico"
North America,USA,40.9125992,-73.8370786,"Mount Vernon, New York"
North America,USA,40.8928771,-73.9726381,"Englewood, New Jersey"
North America,USA,36.8657651,-87.4889532,"Hopkinsville, Kentucky"
North America,USA,26.1908241,-97.6959794,"Harlingen, Texas"
North America,USA,46.9970635,-120.5451223,"Ellensburg, Washington"
North America,USA,41.6152445,-87.6317803,"Phoenix, Illinois"
North America,USA,28.126625,-81.6386977,"Haines City, Florida"
North America,USA,38.2989422,-86.9549972,"Huntingburg, Indiana"
North America,USA,33.4484367,-112.0741417,"Phoenix, Arizona"
North America,USA,35.7803977,-78.6390989,"Raleigh, North Carolina"
North America,USA,34.700923,-87.5289152,"Leighton, Alabama"
North America,USA,40.2899154,-86.058442,"Tipton, Indiana"
North America,USA,40.678713,-73.5890168,"Roosevelt, New York"
North America,USA,43.0171773,-83.7236024,"Flint, Michigan"
Africa,Morocco,33.5950627,-7.6187768,"Casablanca, Morocco"
North America,USA,30.7818584,-85.538541,"Chipley, Florida"
North America,USA,31.2437872,-90.4531536,"McComb, Mississippi"
North America,USA,43.074761,-89.3837613,"Madison, Wisconsin"
North America,USA,42.6708659,-83.0329844,"Shelby, Michigan"
North America,USA,42.2966861,-89.6212271,"Freeport, Illinois"
North America,USA,41.8500284,-88.3125738,"Batavia, Illinois"
North America,USA,35.2270869,-80.8431268,"Charlotte, North Carolina"
North America,USA,33.6401193,-91.3975359,"McGehee, Arkansas"
North America,USA,40.4729398,-79.8176723,"Penn Hills, Pennsylvania"
North America,USA,40.4034024,-79.8683824,"Braddock, Pennsylvania"
North America,USA,40.7684331,-73.5251253,"Hicksville, New York"
North America,USA,37.1924594,-77.3677408,"Petersburg, Virginia"
North America,USA,41.4489397,-82.7079605,"Sandusky, Ohio"
Europe,Netherlands,52.25,5.75,"Denhelder, Netherlands"
North America,USA,45.6746873,-94.8075152,"Melrose, Minnesota"
North America,USA,32.5221828,-93.7651944,"Shreveport, Louisiana"
North America,USA,40.9287098,-74.0398622,"River Edge, New Jersey"
North America,USA,40.5364566,-80.1845031,"Sewickley, Pennsylvania"
North America,USA,40.5067723,-74.2654234,"Perth Amboy, New Jersey"
North America,USA,37.7151375,-121.0866788,"Salida, California"
North America,USA,35.2919489,-81.5402112,"Shelby, North Carolina"
North America,USA,40.2854881,-76.6506001,"Hershey, Pennsylvania"
North America,USA,39.997998,-76.3545372,"Millersville, Pennsylvania"
North America,USA,40.1053196,-85.6802541,"Anderson, Indiana"
North America,USA,38.8339578,-104.8253485,"Colorado Springs, Colorado"
North America,USA,31.1811523,-83.7878809,"Moultrie, Georgia"
North America,USA,39.9289351,-85.3702477,"New Castle, Indiana"
North America,USA,28.0222435,-81.7328568,"Winter Haven, Florida"
North America,USA,32.1095975,-90.6234323,"Utica, Mississippi"
North America,USA,34.6391501,-120.4579409,"Lompoc, California"
North America,United States of America,35.71808,-77.922362,"Wilson Mills, North Carolina"
North America,USA,42.3317642,-71.1211635,"Brookline, Massachusetts"
North America,USA,41.0748189,-73.7751326,"Valhalla, New York"
North America,USA,34.900814,-117.9439533,"Edwards AFB, California"
North America,USA,40.6872885,-80.2714505,"Monaca, Pennsylvania"
North America,USA,37.3361905,-121.8905833,"San Jose, California"
North America,USA,34.257038,-85.1646726,"Rome, Georgia"
North America,USA,40.0149856,-105.2705456,"Boulder, Colorado"
Europe,Romania,47.7331985,22.765542,"Satu-Mare, Romania"
North America,USA,37.6833776,-87.9166916,"Morganfield, Kentucky"
North America,United States of America,31.821192,-93.0295,"Nachitoches, Louisiana"
North America,USA,48.23251,-101.296273,"Minot, North Dakota"
North America,USA,35.2626635,-77.5816353,"Kinston, North Carolina"
North America,USA,30.6943566,-88.0430541,"Mobile, Alabama"
North America,USA,42.2681569,-83.7312291,"Ann Arbor, Michigan"
North America,USA,35.0456297,-85.3096801,"Chattanooga, Tennessee"
North America,USA,35.1595182,-84.8766115,"Cleveland, Tennessee"
North America,USA,41.1200325,-87.8611531,"Kankakee, Illinois"
North America,USA,40.1948848,-92.5833939,"Kirksville, Missouri"
North America,USA,36.8462923,-76.2929252,"Norfolk, Virginia"
North America,USA,38.7098314,-93.2295515,"Sedalia, Missouri"
North America,USA,40.2101972,-77.0047276,"Mechanicsburg, Pennsylvania"
North America,USA,36.8678592,-76.3755985,"Portsmouth, Virginia"
North America,USA,35.3872218,-94.4248983,"Fort Smith, Arkansas"
North America,USA,34.1083449,-117.2897652,"San Bernardino, California"
North America,USA,43.0481221,-76.1474244,"Syracuse, New York"
Asia,Georgia,42.5083319,41.871924,"Milan, Georgia"
North America,USA,42.0811563,-87.9802164,"Arlington Heights, Illinois"
North America,USA,37.3319664,-78.008448,"Amelia, Virginia"
North America,USA,35.9423833,-77.7956949,"Rocky Mount, North Carolina"
North America,USA,38.0464066,-84.4970393,"Lexington, Kentucky"
Europe,Denmark,55.6867243,12.5700724,"Copenhagen, Denmark"
North America,USA,33.5917715,-85.8971885,"Knoxville, Alabama"
North America,USA,36.0103562,-84.2696449,"Oak Ridge, Tennessee"
North America,USA,30.5452022,-83.8701636,"Monticello, Florida"
North America,USA,18.4442533,-66.0629386,"Santurce, Puerto Rico"
North America,USA,42.2222614,-83.3965995,"Romulus, Michigan"
North America,USA,40.666149,-89.5800978,"East Peoria, Illinois"
North America,USA,34.729847,-86.5859011,"Huntsville, Alabama"
North America,USA,25.6905515,-80.235009,"Coral Gables, Florida"
North America,USA,30.846201,-93.289281,"DeRidder, Louisiana"
North America,USA,31.3271189,-89.2903392,"Hattiesburg, Mississippi"
North America,USA,37.24954,-83.1932284,"Hazard, Kentucky"
North America,USA,33.9562003,-118.353132,"Inglewood, California"
North America,The Bahamas,25.0783456,-77.3383331,"Nassau, Bahamas"
Asia,Georgia,41.7052176,44.7903206,"Dublin, Georgia"
Europe,Germany,48.8686783,9.2223243,"West Baden, Indiana"
North America,USA,38.097198,-121.3878496,"Lodi, California"
North America,USA,34.0686208,-117.9389526,"West Covina, California"
North America,USA,38.0181745,-121.8901232,"Pittsburg, California"
North America,USA,43.4200387,-83.9490365,"Saginaw, Michigan"
North America,USA,36.2516475,-118.852583,"Tulare, California"
North America,USA,42.4894801,-83.1446485,"Royal Oak, Michigan"
North America,USA,29.8988258,-93.9287815,"Port Arthur, Texas"
North America,USA,35.3848841,-77.9927651,"Goldsboro, North Carolina"
North America,USA,40.767323,-74.2048677,"East Orange, New Jersey"
North America,USA,35.7111847,-89.087565,"Bells, Tennessee"
North America,USA,35.023343,-93.022697,"McGhee, Arkansas"
North America,USA,30.1600827,-85.6545729,"Panama City, Florida"
North America,USA,43.8705186,-95.6002856,"Fulda, Minnesota"
North America,USA,47.6579425,-117.4212265,"Spokane, Washington"
North America,USA,40.9312099,-73.8987469,"Yonkers, New York"
North America,USA,32.5178284,-87.8368201,"Demopolis, Alabama"
North America,USA,35.262082,-81.1873005,"Gastonia, North Carolina"
North America,USA,32.6308679,-90.0040817,"Madison County, Mississippi"
North America,USA,32.9832812,-82.8116031,"Sandersville, Georgia"
North America,USA,41.237557,-80.818417,"Warren, Ohio"
Europe,United Kingdom,52.907267,0.4960146,"Heacham, United Kingdom"
North America,USA,35.649791,-88.1267025,"Parsons, Tennessee"
North America,USA,41.3325962,-73.2073358,"Monroe, Connecticut"
North America,USA,35.158408,-92.6417919,"Plummerville, Arkansas"
North America,USA,31.4514071,-85.7839347,"Fort Rucker, Alabama"
North America,USA,32.6421387,-87.2876639,"Perry, Alabama"
North America,USA,44.1858193,-88.462609,"Neenah, Wisconsin"
North America,USA,30.2265949,-93.2173759,"Lake Charles, Louisiana"
North America,USA,27.3364347,-82.5306527,"Sarasota, Florida"
North America,USA,40.518681,-78.394736,"Altoona, Pennsylvania"
North America,USA,35.8668281,-76.7485555,"Plymouth, South Carolina"
North America,USA,36.6553272,-121.8217725,"Fort Ord, California"
North America,USA,33.9463456,-118.200981,"South Gate, California"
North America,USA,39.4278253,-86.428328,"Martinsville, Indiana"
North America,USA,32.9065168,-90.8781567,"Rolling Fork, Mississippi"
North America,USA,36.7461246,-76.6112468,"Suffolk, Virginia"
North America,USA,35.8240265,-80.2533838,"Lexington, North Carolina"
Europe,Germany,50.0820384,8.2416556,"Wiesbaden, Germany"
North America,USA,44.0505054,-123.0950506,"Eugene, Oregon"
South America,Panama,8.9714493,-79.5341802,"Panama City, Panama"
North America,USA,30.8327022,-83.2784851,"Valdosta, Georgia"
North America,USA,39.5489964,-76.0914718,"Havre De Grace, Maryland"
North America,USA,40.004128,-75.2883006,"Ardmore, Pennsylvania"
North America,USA,41.2230048,-111.9738429,"Ogden, Utah"
North America,USA,36.280694,-80.3592197,"King, North Carolina"
North America,USA,26.0112014,-80.1494901,"Hollywood, Florida"
North America,USA,33.642208,-85.572117,"Town Creek, Alabama"
North America,USA,33.8503463,-118.1171914,"Lakewood, California"
Europe,Iceland,64.2445036,-21.7692636,"Reykjavik, Iceland"
North America,USA,28.8117297,-81.2680345,"Sanford, Florida"
North America,USA,42.7860227,-112.8544377,"American Falls, Idaho"
North America,USA,39.0840054,-77.1527573,"Rockville, Maryland"
North America,USA,28.9819277,-81.9242498,"Weirsdale, Florida"
North America,USA,40.2922938,-79.8817181,"Clairton, Pennsylvania"
North America,USA,41.9117134,-86.0100069,"Cassopolis, Michigan"
North America,USA,40.742551,-84.1052256,"Lima, Ohio"
North America,USA,32.3512601,-95.3010624,"Tyler, Texas"
North America,USA,34.5068601,-82.6506264,"Anderson, South Carolina"
North America,USA,29.1871986,-82.1400923,"Ocala, Florida"
North America,USA,37.3228934,-122.0322895,"Cupertino, California"
North America,USA,40.8461966,-73.8164419,"Bayshore, New York"
North America,USA,38.928167,-76.915807,"Cheverly, Maryland"
North America,USA,40.805378,-74.2037566,"Glen Ridge, New Jersey"
North America,USA,35.9603948,-83.9210261,"Knoxville, Tennessee"
North America,USA,36.3274502,-119.6456844,"Hanford, California"
North America,USA,33.0095802,-83.5337816,"Gray, Georgia"
North America,USA,40.8885758,-72.445108,"Southhampton, New York"
North America,USA,32.8220876,-92.6579295,"Bernice, Louisiana"
North America,USA,41.5931049,-81.5267873,"Euclid, Ohio"
North America,USA,33.7578725,-117.9859054,"Westminster, California"
North America,USA,30.3674198,-89.0928155,"Gulfport, Mississippi"
North America,USA,45.0564041,-92.8134982,"Stillwater, Minnesota"
North America,USA,38.6244952,-90.1509429,"East St. Louis, Illinois"
North America,USA,37.2242358,-95.7083131,"Independence, Kansas"
North America,USA,41.4914236,-87.6744891,"Park Forest, Illinois"
North America,USA,40.6914852,-73.8056771,"Jamaica, New York"
North America,USA,41.146763,-73.4948446,"New Canaan, Connecticut"
North America,USA,42.4932575,-83.0062746,"Warren, Michigan"
North America,USA,34.2157064,-92.0140402,"Pine Bluff, Arkansas"
North America,USA,44.811349,-91.4984941,"Eau Claire, Wisconsin"
North America,USA,36.7953025,-76.0509251,"Virginia Beach, Virginia"
North America,USA,37.4108841,-94.70496,"Pittsburg, Kansas"
North America,USA,37.3494528,-108.5840736,"Cortez, Colorado"
North America,USA,31.5654441,-91.4259495,"Vidalia, Louisiana"
North America,USA,38.6050833,-89.6817621,"Trenton, Illinois"
North America,USA,35.9131542,-79.05578,"Chapel Hill, North Carolina"
North America,USA,35.9272953,-89.9189754,"Blytheville, Arkansas"
North America,USA,31.3068546,-94.2690876,"Broaddus, Texas"
North America,USA,41.5623178,-72.6509061,"Middletown, Connecticut"
North America,USA,35.8968236,-77.5358049,"Tarboro, North Carolina"
North America,USA,47.1301417,-119.2780771,"Moses Lake, Washington"
North America,USA,32.4240286,-85.6916195,"Tuskegee, Alabama"
Europe,France,48.8566969,2.3514616,"Paris, France"
North America,Canada,44.107556,-79.127655,"Uxbridge, Canada"
North America,USA,44.4478474,-92.2678663,"Lake City, Minnesota"
Europe,Spain,40.4167047,-3.7035825,"Madrid, Spain"
North America,USA,35.2436969,-89.3500714,"Somerville, Tennessee"
North America,USA,41.5910641,-93.6037149,"Des Moines, Iowa"
North America,USA,33.5778631,-101.8551665,"Lubbock, Texas"
North America,USA,33.9528472,-84.5496148,"Marietta, Georgia"
North America,USA,33.6442699,-79.7442135,"Williamsburg County, South Carolina"
North America,USA,34.1112226,-82.8670839,"Elberton, Georgia"
North America,USA,41.6735209,-72.9464859,"Bristol, Connecticut"
North America,USA,32.8881879,-84.3265855,"Thomaston, Georgia"
North America,USA,39.9597213,-75.6059638,"West Chester, Pennsylvania"
North America,Canada,43.653963,-79.387207,"Toronto, Canada"
North America,USA,38.4396675,-78.8701365,"Harrisonburg, Virginia"
North America,USA,43.5499749,-96.700327,"Sioux Falls, South Dakota"
North America,USA,28.0394654,-81.9498042,"Lakeland, Florida"
North America,USA,35.9828413,-86.5186045,"Smyrna, Tennessee"
North America,USA,40.635,75.5849,"Orefield, Pennsylvania"
North America,USA,35.2590371,-77.6484879,"Lenoir County, North Carolina"
North America,USA,41.767249,-73.2543049,"Litchfield, Connecticut"
North America,USA,33.5439212,-86.5427551,"Leeds, Alabama"
North America,USA,40.3429683,-76.4233816,"Lebanon, Pennsylvania"
North America,USA,40.9106541,-73.5620689,"Bayville, New York"
North America,USA,35.1464797,-90.1845388,"West Memphis, Arkansas"
North America,USA,44.694285,-75.486374,"Ogdensburg, New York"
Europe,Germany,49.4093582,8.694724,"Heidelburg, Germany"
North America,USA,41.6612561,-91.5299106,"Iowa City, Iowa"
North America,USA,40.9690798,-73.7635316,"Scarsdale, New York"
North America,Panama,9.0,-80.0,"Panama Canal Zone, Panama"
North America,USA,37.9723339,-81.1487136,"Oak Hill, West Virginia"
North America,USA,36.6240321,-78.5569437,"Clarksville, Virginia"
North America,USA,41.5381535,-72.8070435,"Meriden, Connecticut"
Africa,Nigeria,6.4550575,3.3941795,"Lagos, Nigeria"
North America,USA,42.4057135,-83.0969467,"Highland Park, Michigan"
North America,USA,36.9786449,-76.4321089,"Newport News, Virginia"
North America,USA,41.012833,-81.6051221,"Barberton, Ohio"
North America,Jamaica,17.9712148,-76.7928128,"Kingston, Jamaica"
North America,USA,41.9031963,-85.5356726,"St. Joseph, Michigan"
North America,USA,42.9047884,-76.8627368,"Waterloo, New York"
North America,USA,30.421309,-87.2169149,"Pensacola, Florida"
North America,USA,45.2100367,-123.194463,"McMinnville, Oregon"
North America,USA,39.7459468,-75.546589,"Wilmington, Delaware"
North America,USA,26.5253491,-80.0664309,"Boynton Beach, Florida"
North America,USA,44.8011821,-68.7778138,"Bangor, Maine"
North America,USA,42.8688613,-112.4401098,"Pocatello, Idaho"
North America,USA,38.8147596,-77.0902477,"Alexandria, Virginia"
Europe,Germany,48.1371079,11.5753822,"Munich, Germany"
Africa,South Sudan,8.5315144,28.0996528,"Gogrial, South Sudan"
North America,USA,27.9658533,-82.8001026,"Clearwater, Florida"
North America,USA,33.8984461,-88.9992267,"Houston, Mississippi"
North America,USA,42.24253,-83.6171427,"Ypsilanti, Michigan"
Europe,Bulgaria,42.8674135,25.4924992,"Triavna, Bulgaria"
North America,USA,33.3529446,-84.802413,"Newman, Georgia"
North America,USA,34.6883948,-99.9120456,"Hollis, Oklahoma"
North America,Haiti,19.7336834,-72.2224064,"Cap-Haitian, Haiti"
North America,USA,31.5798939,-92.721539,"Summerfield, Louisiana"
North America,USA,32.2228765,-110.9748477,"Tucson, Arizona"
North America,USA,32.3528418,-90.8777342,"Vicksburg, Mississippi"
North America,USA,47.3075369,-122.2301808,"Auburn, Washington"
North America,USA,40.7792653,-72.9153827,"Brookhaven, New York"
Europe,Germany,51.0324743,6.9881194,"Leverkusen, Germany"
North America,Canada,42.993097,-79.250565,"Welland, Canada"
North America,USA,40.8088861,-96.7077751,"Lincoln, Nebraska"
North America,USA,33.4956744,-88.4272627,"Columbus, Mississippi"
North America,USA,42.7337712,-84.5553805,"Lansing, Michigan"
North America,USA,33.7913497,-118.29138,"Harbor City, California"
North America,USA,35.6178951,-82.3212302,"Black Mountain, North Carolina"
North America,USA,37.6922361,-97.3375448,"Wichita, Kansas"
North America,USA,40.8610205,-79.8952251,"Butler, Pennsylvania"
North America,USA,34.0966764,-117.7197785,"Claremont, California"
North America,USA,41.8994745,-87.9403418,"Elmhurst, Illinois"
North America,USA,33.2281757,-91.7976285,"Hamburg, Arkansas"
North America,USA,26.6059432,-81.9806771,"Cape Coral, Florida"
North America,USA,46.8700801,-113.9952796,"Missoula, Montana"
North America,USA,41.8012002,-74.7465527,"Liberty, New York"
North America,USA,36.5859718,-79.3950228,"Danville, Virginia"
North America,USA,31.5823832,-86.2571786,"Brantley, Alabama"
North America,USA,36.7494864,-95.9782966,"Bartlesville, Oklahoma"
North America,USA,33.8708215,-117.9294165,"Fullerton, California"
North America,USA,40.7303534,-80.3100513,"New Brighton, Pennsylvania"
North America,USA,41.43535,-81.514824,"Warrensville Heights, Ohio"
North America,USA,41.6105983,-86.7225227,"LaPorte, Indiana"
North America,USA,32.7219973,-84.0130926,"Roberta, Georgia"
North America,USA,31.2237434,-85.3933906,"Dothan, Alabama"
North America,USA,39.7990175,-89.6439575,"Springfield, Illinois"
North America,USA,36.3295905,-78.3991638,"Henderson, North Carolina"
North America,USA,33.4000633,-91.0551312,"Greenville, Mississippi"
North America,USA,44.3140261,-94.4614177,"New Ulm, Minnesota"
North America,USA,39.158168,-75.5243682,"Dover, Delaware"
North America,Haiti,18.547327,-72.3395928,"Port-au-Prince, Haiti"
North America,USA,26.7753405,-80.0580969,"Riviera Beach, Florida"
North America,USA,47.5653663,-122.6246836,"Bremerton, Washington"
North America,USA,36.6987494,-78.9013987,"South Boston, Virginia"
Europe,Germany,51.186867,10.0575056,"Eschwege, Germany"
Europe,Germany,53.0528092,8.6294626,"Delmenhorst, Germany"
North America,USA,31.3224044,-92.4343035,"Pineville, Louisiana"
North America,USA,43.7391616,-87.7817541,"Kohler, Wisconsin"
North America,USA,30.6324149,-87.0396881,"Milton, Florida"
North America,USA,37.876291,-121.2717439,"French Camp, California"
North America,USA,47.9673056,-122.2013998,"Everett, Washington"
North America,USA,36.9903199,-86.4436018,"Bowling Green, Kentucky"
North America,USA,36.7183708,-76.2466798,"Chesapeake, Virginia"
North America,USA,41.5200518,-81.556235,"Cleveland Heights, Ohio"
North America,USA,34.0676169,-118.0879763,"Rosemead, California"
South America,Brazil,-12.9169851,-38.3628001,"Curtiba, Brazil"
North America,USA,41.7063679,-71.5236633,"West Warwick, Rhode Island"
North America,USA,35.3414745,-89.8973084,"Millington, Tennessee"
North America,Dominican Republic,19.0,-70.66667,"LaRomana, Dominican Republic"
North America,United States of America,40.675545,-73.39999,"Copaigue, New York"
Asia,Lebanon,33.8959203,35.47843,"Beirut, Lebanon"
North America,USA,31.6446155,-89.5559859,"Collins, Mississippi"
North America,USA,42.0289319,-87.8122348,"Niles, Illinois"
North America,USA,36.5969275,-119.4502701,"Reedley, California"
North America,USA,42.2682408,-83.2844172,"Wayne, Michigan"
North America,USA,29.6519396,-82.3249961,"Gainesville, Florida"
North America,Puerto Rico,18.24829,-66.49989,"Albonito, Puerto Rico"
North America,USA,28.0836269,-80.6081089,"Melbourne, Florida"
North America,USA,40.2601096,-74.2737573,"Freehold, New Jersey"
North America,USA,41.2617481,-75.8968635,"Kingston, Pennsylvania"
North America,USA,26.1223084,-80.1433786,"Fort Lauderdale, Florida"
North America,USA,18.3794415,-65.957695,"Carolina, Puerto Rico"
North America,USA,42.5467012,-83.2113192,"Birmingham, Michigan"
Europe,Netherlands,51.4485569,5.4501225,"Eindhoven, Netherlands"
North America,USA,38.657181,-90.1670585,"Brooklyn, Illinois"
North America,USA,41.7571701,-88.3147539,"Aurora, Illinois"
North America,USA,32.912624,-96.6388833,"Garland, Texas"
Europe,Norway,59.9133301,10.7389701,"Oslo, Norway"
Europe,United Kingdom,51.5073219,-0.1276474,"London, United Kingdom"
North America,USA,31.2320941,-96.9262126,"Falls County, Texas"
Europe,Serbia,43.3891969,19.6496772,"Prijepolje, Serbia"
North America,USA,30.5272878,-86.0485358,"Fort Walton, Florida"
North America,USA,39.9414729,-90.5343142,"LaGrange, Illinois"
North America,USA,41.6819935,-85.9766671,"Elkhart, Indiana"
North America,USA,33.2095614,-87.5675258,"Tuscaloosa, Alabama"
North America,USA,34.6086854,-98.3903305,"Lawton, Oklahoma"
North America,USA,40.201499,-77.1890783,"Carlisle, Pennsylvania"
North America,USA,38.5200504,-89.9839935,"Belleville, Illinois"
North America,USA,37.9020731,-122.0618702,"Walnut Creek, California"
Europe,Lithuania,54.8982139,23.9044817,"Kaunas, Lithuania"
North America,USA,35.4020287,-90.7531682,"Cherry Valley, Arkansas"
North America,USA,40.7970384,-74.4809492,"Morristown, New Jersey"
North America,USA,29.2108147,-81.0228331,"Daytona Beach, Florida"
Europe,Montenegro,43.3565611,19.3584715,"Pljevlja, Montenegro"
North America,USA,31.74096,-89.13382,"Laurel, Mississippi"
Europe,Croatia,43.7337065,15.8964835,"Sibenik, Croatia"
North America,USA,46.7304268,-117.173895,"Pullman, Washington"
North America,USA,34.8662005,-92.1101458,"Jacksonville, Arkansas"
North America,USA,24.5625566,-81.7724368,"Key West, Florida"
North America,USA,36.2494056,-77.66834,"Halifax, North Carolina"
Asia,Russia,54.991375,73.371529,"Omsk, Russia"
Africa,Egypt,30.048819,31.243666,"Cairo, Egypt"
North America,USA,34.8283825,-86.9171338,"Athens, Alabama"
Europe,Serbia,43.7235798,20.6875995,"Kraljevo, Serbia"
North America,USA,29.3655405,-100.8946984,"Del Rio, Texas"
North America,USA,40.7267692,-73.7415208,"Queens Village, New York"
North America,USA,20.8029568,-156.3106833,"Maui, Hawaii"
North America,USA,35.3054322,-76.7886736,"Aurora, North Carolina"
North America,USA,37.7934528,-79.9939484,"Covington, Virginia"
North America,USA,38.9529442,-76.9408647,"Hyattsville, Maryland"
North America,USA,39.0286093,-96.8313978,"Junction City, Kansas"
North America,USA,39.2806451,-80.3445341,"Clarksburg, West Virginia"
North America,USA,32.9445682,-87.1386067,"Centreville, Alabama"
North America,USA,48.803083,-102.246001,"Bowbells, North Dakota"
North America,USA,36.9096897,-77.2741121,"Sussex, Virginia"
North America,USA,34.3387802,-78.7030721,"Whiteville, North Carolina"
North America,USA,39.7136754,-82.5993294,"Lancaster, Ohio"
North America,USA,30.2240897,-92.0198427,"Lafayette, Louisiana"
North America,USA,42.4396039,-76.4968019,"Ithaca, New York"
North America,USA,39.1670396,-86.5342881,"Bloomington, Indiana"
North America,USA,32.5066112,-93.6514936,"Bossier City, Louisiana"
North America,Jamaica,18.0431254,-77.50741,"Mandeville, Jamaica"
North America,USA,42.9632405,-85.6678639,"Grand Rapids, Michigan"
North America,USA,27.928464,-82.2880446,"Brandon, Florida"
North America,USA,39.6419219,-77.7202641,"Hagerstown, Maryland"
Europe,Croatia,43.861211,16.15661,"Drnis, Croatia"
North America,USA,32.7896202,-80.6303822,"Ritter, South Carolina"
North America,USA,33.9930677,-117.9686755,"Hacienda Heights, California"
North America,USA,39.2089986,-76.0666126,"Chestertown, Maryland"
North America,USA,36.1672559,-115.1485163,"Las Vegas, Nevada"
North America,USA,34.1476452,-118.1444779,"Pasadena, California"
North America,USA,39.3637773,-121.6935833,"Gridley, California"
North America,USA,37.8367513,-87.5907631,"Henderson, Kentucky"
North America,USA,32.4315813,-80.6698286,"Beaufort, South Carolina"
North America,USA,40.4656244,-80.0656106,"McKees Rocks, Pennsylvania"
North America,USA,33.9204354,-80.3414693,"Sumter, South Carolina"
North America,USA,45.031696,-93.3353198,"Robbinsdale, Minnesota"
North America,USA,33.5801103,-85.0766113,"Carrollton, Georgia"
North America,USA,34.5774368,-83.332881,"Toccoa, Georgia"
North America,USA,34.0250724,-118.4965129,"Santa Monica, California"
North America,Trinidad and Tobago,10.4430243,-61.2613054,"Trinidad, Trinidad and Tobago"
North America,USA,33.9137085,-98.4933873,"Wichita Falls, Texas"
North America,USA,38.3662806,-89.4201902,"Washington, Illinois"
Oceania,Australia,-37.8142176,144.9631608,"Melbourne, Australia"
North America,USA,44.8322405,-93.3204872,"Bloomington, Minnesota"
North America,USA,40.5742696,-74.60988,"Somerville, New Jersey"
Africa,DR Congo,-4.3217055,15.3125974,"Kinshasa, Democratic Republic of the Congo"
North America,USA,35.1484169,-92.5540487,"Menifee, Arkansas"
North America,USA,44.8897027,-93.3501222,"Edina, Minnesota"
North America,USA,33.9043212,-80.8770342,"Hopkins, South Carolina"
North America,USA,36.7670938,-76.5307823,"Nansemond County, Virginia"
North America,USA,36.9749416,-122.0285259,"Santa Cruz, California"
South America,Brazil,-10.0,-55.0,"Trabajara, Brazil"
North America,USA,44.5126379,-88.0125794,"Green Bay, Wisconsin"
North America,USA,39.9537359,-74.1979576,"Toms River, New Jersey"
North America,Bahamas,25.04082,-77.37122,"Eleuthra, Bahamas"
North America,USA,42.1167065,-86.4541894,"Benton Harbor, Michigan"
North America,USA,40.770937,-74.2309654,"Orange, New Jersey"
Europe,Serbia,43.8888275,20.3447317,"Cacak, Serbia"
North America,USA,39.8454163,-88.9524151,"Decatur, Illinois"
North America,USA,42.5195292,-70.8967226,"Salem, Massachusetts"
North America,USA,30.3646795,-88.5585995,"Pascagoula, Mississippi"
North America,USA,40.8534318,-73.4115091,"Huntington Station, New York"
North America,USA,31.3085039,-86.4832033,"Andalusia, Alabama"
North America,United States of America,39.580683,-95.612414,"Watonga, Kansas"
North America,USA,36.7834825,-76.5463387,"Culpepper, Virginia"
North America,USA,29.6993748,-91.20677,"Morgan City, Louisiana"
North America,USA,33.6856969,-117.8259819,"Irvine, California"
North America,USA,42.638393,-79.027816,"Angola, New York"
North America,USA,37.4443293,-122.1598465,"Palo Alto, California"
North America,USA,34.405472,-103.2050709,"Clovis, New Mexico"
North America,USA,35.3272928,-96.9253004,"Shawnee, Oklahoma"
North America,USA,30.4504779,-93.4332189,"DeQuincy, Louisiana"
North America,USA,36.6937606,-77.5357141,"Emporia, Virginia"
Europe,Latvia,57.3903918,21.5635991,"Ventspils, Latvia"
North America,USA,33.3015121,-88.6147687,"Crawford, Mississippi"
North America,USA,40.7398242,-73.9354153,"Sunnyside, New York"
North America,USA,32.6467914,-83.4351636,"Twiggs, Georgia"
North America,USA,27.9014133,-81.5859099,"Lake Wales, Florida"
North America,USA,34.1483499,-118.0014517,"Monrovia, California"
Europe,Germany,49.4143311,7.5722301,"Landstuhl, Germany"
North America,USA,33.695381,-85.8398423,"Anniston, Alabama"
North America,USA,40.6938609,-89.5891008,"Peoria, Illinois"
North America,Cuba,23.135305,-82.3589631,"Havana, Cuba"
Europe,Netherlands,51.9446135,6.1399176,"Didam, Netherlands"
North America,USA,33.7500378,-117.8704931,"Orange, California"
North America,USA,36.2914512,-88.7081123,"Dresden, Tennessee"
North America,USA,33.3439995,-86.4380357,"Harpersville, Alabama"
North America,USA,35.2454313,-78.3543933,"Newton Grove, North Carolina"
Europe,Croatia,43.5116383,16.4399659,"Split, Croatia"
North America,USA,37.3029568,-120.4843269,"Merced, California"
North America,USA,45.6954173,-121.8847247,"Stevenson, Washington"
Europe,Romania,44.4665785,26.1119606,"Triteni, Romania"
North America,USA,29.4246002,-98.4951405,"San Antonio, Texas"
Europe,Slovakia,48.2163194,18.6000869,"Levice, Slovakia"
North America,USA,48.3882861,-115.5559988,"Libby, Montana"
Europe,Russia,55.7504461,37.6174943,"Moscow, Russia"
North America,USA,41.2042616,-73.7270761,"Mount Kisco, New York"
Africa,Nigeria,11.9918671,8.5303654,"Kano, Nigeria"
North America,USA,41.3160082,-91.7340327,"Washington, Iowa"
North America,USA,37.2713951,-107.8815978,"Durango, Colorado"
North America,USA,40.335345,-75.9279495,"Reading, Pennsylvania"
Africa,Nigeria,6.1914,7.2316,"Nkwere, Nigeria"
North America,USA,31.6809362,-86.3244009,"Crenshaw, Alabama"
North America,USA,40.3697905,-80.6339638,"Steubenville, Ohio"
North America,USA,27.4989278,-82.5748194,"Bradenton, Florida"
North America,USA,38.7110816,-77.0346841,"Fort Washington, Maryland"
North America,USA,31.1499528,-81.4914894,"Brunswick, Georgia"
North America,USA,36.4423754,-77.0985753,"Murfreesboro, North Carolina"
North America,USA,30.8365815,-83.9787808,"Thomasville, Georgia"
North America,USA,35.8065455,-77.863315,"Elm City, North Carolina"
North America,USA,38.3031837,-77.4605399,"Fredericksburg, Virginia"
North America,USA,41.8878145,-87.7887615,"Oak Park, Illinois"
North America,USA,40.7063185,-73.618684,"Hempstead, New York"
North America,USA,33.1838787,-97.1413417,"Denton, Texas"
North America,USA,42.1014831,-72.589811,"Springfield, Massachusetts"
North America,USA,37.5972724,-90.6273444,"Ironton, Missouri"
North America,USA,18.3429081,-64.9188997,"St. Thomas, U.S. Virgin Islands"
North America,USA,46.2778406,-119.2769067,"Richland, Washington"
Europe,Serbia,44.8178131,20.4568974,"Belgrade, Serbia"
Europe,B&H,43.8519774,18.3866868,"Sarajevo, Bosnia and Herzegovina"
North America,USA,33.8963593,-118.3053037,"Gardena, California"
Europe,Italy,41.0820827,14.334708,"Caserta, Italy"
North America,USA,41.9005865,-87.8567277,"Melrose Park, Illinois"
North America,USA,34.77873,-82.310119,"Mauldin, South Carolina"
North America,USA,26.7153425,-80.0533746,"West Palm Beach, Florida"
North America,USA,31.7782514,-82.3484618,"Baxley, Georgia"
North America,USA,37.0430812,-100.920999,"Liberal, Kansas"
North America,USA,34.1920186,-90.2946542,"Quitman, Mississippi"
North America,USA,43.1127427,-94.6830357,"Emmetsburg, Iowa"
Europe,Italy,42.83333,12.83333,"Bassanod'Grappa, Italy"
North America,USA,41.2464824,-75.8817316,"Wilkes-Barre, Pennsylvania"
North America,USA,44.0661044,-87.8842583,"Valders, Wisconsin"
North America,USA,33.8251139,-88.5436553,"Aberdeen, Mississippi"
Europe,Czechia,49.226766,17.6667415,"Zlin, Czech Republic"
Oceania,Australia,-34.9281805,138.5999312,"Adelaide, Australia"
North America,USA,31.7754152,-106.4646348,"El Paso, Texas"
North America,USA,27.6387163,-80.3975399,"Vero Beach, Florida"
North America,USA,35.5642474,-89.6464672,"Covington, Tennessee"
North America,USA,40.6786663,-82.582421,"Lexington, Ohio"
North America,USA,34.07029,-117.3958797,"Bloomington, California"
North America,USA,48.4200462,-122.32642,"Mount Vernon, Washington"
North America,USA,37.0520315,-76.2856365,"Hampton, Virginia"
North America,Mexico,28.0410312,-109.3514109,"El Rosario, Mexico"
North America,USA,38.9959461,-77.0276231,"Silver Spring, Maryland"
Europe,Estonia,59.4372155,24.7453688,"Tallinn, Estonia"
Africa,RSA,-26.205,28.049722,"Johannesburg, South Africa"
North America,United States of America,33.608922,-91.207356,"Osecola, Arkansas"
Europe,Ukraine,50.4500336,30.5241361,"Kiev, Ukraine"
North America,USA,40.0639616,-80.7209149,"Wheeling, West Virginia"
North America,USA,42.2465036,-84.4016963,"Jackson, Michigan"
North America,USA,40.9167654,-74.171811,"Paterson, New Jersey"
North America,USA,32.72667,-85.392493,"Opelika, Alabama"
North America,USA,43.084702,-91.5682015,"Postville, Iowa"
North America,USA,32.3270827,-86.7119247,"White Hall, Alabama"
Europe,France,48.8012045,2.4309703,"Maisons Alfort, France"
North America,USA,17.7289564,-64.759016,"St. Croix, U.S. Virgin Islands"
North America,Saint Vincent and the Grenadines,12.7158153,-61.3252692,"Canouan, Saint Vincent and the Grenadines"
North America,USA,37.7274692,-89.216655,"Carbondale, Illinois"
North America,USA,35.6818059,-80.4322801,"East Spencer, North Carolina"
North America,USA,40.7959335,-74.3148713,"Livingston, New Jersey"
North America,USA,32.5007031,-94.74049,"Longview, Texas"
North America,USA,27.8851866,-81.8140878,"Bartow, Florida"
Europe,Slovenia,46.2432635,14.3549501,"Kranj, Slovenia"
North America,USA,44.932738,-96.054481,"Dawson, Minnesota"
North America,USA,33.8825705,-118.1167679,"Bellflower, California"
North America,USA,41.7728699,-88.1479278,"Naperville, Illinois"
North America,USA,40.6667841,-111.888417,"Murray, Utah"
Europe,France,50.4870325,1.62441,"Cucq-Trepied-Stella-Plage, France"
North America,USA,32.2745912,-90.1320311,"Pearl, Mississippi"
North America,USA,32.6909704,-91.8717943,"Collinston, Louisiana"
North America,USA,33.894927,-118.226624,"Compton, California"
North America,USA,39.9348351,-75.0307264,"Cherry Hill, New Jersey"
North America,USA,33.8137161,-92.4129303,"Fordyce, Arkansas"
North America,USA,40.125222,-87.6304614,"Danville, Illinois"
North America,USA,44.8277446,-92.9438218,"Cottage Grove, Minnesota"
North America,USA,29.299328,-94.7945882,"Galveston, Texas"
North America,USA,42.7420086,-93.2022735,"Hampton, Iowa"
North America,D.R.,18.5638543,-69.8531692,"Santo Domingo, Dominican Republic"
North America,Mexico,28.6324516,-106.1027619,"Mexico, Missouri"
Oceania,New Zealand,-36.852095,174.7631803,"Auckland, New Zealand"
North America,USA,33.4918203,-80.8556476,"Orangeburg, South Carolina"
Africa,Senegal,14.693425,-17.447938,"Dakar, Senegal"
North America,USA,37.0057958,-89.1772449,"Cairo, Illinois"
Europe,Slovenia,46.0499803,14.5068602,"Ljubljana, Slovenia"
Europe,Germany,49.79245,9.932966,"Wurzburg, Germany"
Asia,Lebanon,33.9298484,35.5892124,"Lebanon, Ohio"
Europe,Sweden,59.3251172,18.0710935,"Stockholm, Sweden"
North America,USA,31.098207,-97.3427847,"Temple, Texas"
Europe,Croatia,45.34028,17.68528,"Slavoska Pozega , Croatia"
North America,USA,41.6612104,-72.7795419,"New Britain, Connecticut"
North America,USA,43.987742,-95.755846,"Slayton, Minnesota"
North America,USA,30.5254692,-89.6795084,"Picayune, Mississippi"
North America,USA,39.9547861,-82.8121191,"Reynoldsburg, Ohio"
North America,Cuba,22.4641084,-83.4468598,"Santa Clara, Cuba"
North America,USA,37.8240267,-76.7007912,"Sharps, Virginia"
North America,USA,40.6299403,-91.3151908,"Fort Madison, Iowa"
North America,USA,41.248774,-73.9086846,"Cortlandt Manor, New York"
North America,USA,33.4707348,-82.5045956,"Thomson, Georgia"
Africa,Nigeria,4.7676576,7.0188527,"Port Harcourt, Nigeria"
North America,USA,40.4936586,-84.3146722,"New Knoxville, Ohio"
North America,USA,39.9831616,-75.8238355,"Coatesville, Pennsylvania"
North America,USA,41.7010642,-71.1546367,"Fall River, Massachusetts"
North America,USA,28.3861159,-80.7419984,"Cocoa, Florida"
North America,Canada,49.884017,-97.168579,"Winnipeg, Canada"
South America,Guyana,6.8025766,-58.1628612,"Georgetown, Guyana"
North America,USA,32.7876012,-79.9402728,"Charleston, South Carolina"
Europe,Montenegro,42.4509294,18.5360443,"Herceg Novi, Montenegro"
Europe,Serbia,43.136667,20.512222,"Novi Pazar, Serbia"
North America,USA,41.0145418,-73.872635,"Dobbs Ferry, New York"
North America,USA,39.9861415,-88.2589387,"Tolono, Illinois"
North America,USA,26.1223084,-80.1433786,"Ft. Lauderdale, Florida"
South America,Panama,9.2194032,-79.8064399,"Colon, Panama"
North America,USA,39.729432,-104.8319196,"Aurora, Colorado"
North America,USA,40.7246999,-73.7048024,"Floral Park, New York"
North America,USA,31.7562765,-84.6151965,"Shellman, Georgia"
North America,Dominica,15.2991923,-61.3872868,"Roseau, Dominica"
North America,USA,32.3944908,-96.8439365,"Waxahachie, Texas"
North America,USA,33.7038145,-117.9627349,"Fountain Valley, California"
Europe,Ukraine,49.643101,30.788839,"Karapyshi, Ukraine"
North America,USA,43.70953,-98.025379,"Mitchell, South Dakota"
Europe,Finland,60.1674098,24.9425769,"Helsinki, Finland"
North America,Mexico,28.3583941,-105.5215257,"Meoqui, Mexico"
North America,USA,42.4733689,-83.2218731,"Southfield, Michigan"
Africa,Nigeria,7.3777462,3.8972497,"Ibadan, Nigeria"
North America,USA,37.226611,-121.9746797,"Los Gatos, California"
North America,USA,31.5718352,-85.2504893,"Abbeville, Alabama"
North America,USA,45.3055202,-93.7941378,"Monticello, Minnesota"
Africa,Mali,11.4194313,-7.4833878,"Bougouni, Mali"
South America,Argentina,-38.7182364,-62.266245,"Bahia Blanca, Argentina"
Asia,Georgia,41.54309,45.0112804,"Rustavi, Georgia"
Europe,Turkey,41.0096334,28.9651646,"Istanbul, Turkey"
South America,Argentina,-34.6546138,-58.4155345,"Buenos Aries, Argentina"
Asia,PRC,39.906217,116.3912757,"Beijing, China"
North America,USA,40.0278894,-74.8690542,"Willingboro, New Jersey"
North America,USA,18.3278026,-65.6561832,"Fajardo, Puerto Rico"
Africa,Cameroon,6.0,12.5,"Edda, Cameroon"
North America,USA,33.6795531,-84.4393724,"East Point, Georgia"
Europe,Slovenia,45.7752438,14.2117877,"Postojna, Slovenia"
North America,USA,40.8020712,-124.1636729,"Eureka, California"
North America,USA,30.2368772,-93.0137569,"Iowa, Louisiana"
North America,USA,39.732892,-75.1315651,"Pitman, New Jersey"
North America,Haiti,18.547327,-72.3395928,"Port-Au-Prince, Haiti"
Europe,Montenegro,43.0337081,19.7469527,"Bijelo Polje, Montenegro"
Europe,Greece,37.9841493,23.7279843,"Athens, Greece"
Europe,Spain,41.3828939,2.1774322,"Barcelona, Spain"
North America,USA,36.5277607,-87.3588703,"Clarksville, Tennessee"
North America,United States of America,35.737569,-87.473903,"Loblesville, Tennessee"
Europe,Luxembourg,49.8158683,6.1296751,"Luxembourg, Luxembourg"
Europe,Russia,56.866557,53.2094166,"Izhevsk, Russia"
Europe,Belgium,51.2085526,3.226772,"Bruges, Belgium"
Europe,B&H,42.7173413,18.3394125,"Trebinje Srpska-Bih, Bosnia and Herzegovina"
Europe,Serbia,45.6717612,18.9817498,"Apatin, Serbia"
North America,USA,40.8078786,-73.9454154,"Harlem, New York"
South America,Venezuela,10.506098,-66.9146017,"Caracas, Venezuela"
Europe,B&H,45.1462208,17.2521619,"Bosanska Gradiska, Bosnia and Herzegovina"
North America,USA,33.2116975,-86.2781576,"Sylacauga, Alabama"
Europe,United Kingdom,55.8455828,-4.4239646,"Paisley, United Kingdom"
North America,USA,32.091299,-96.4646821,"Corsicana, Texas"
Europe,Germany,49.9740542,9.1493636,"Aschaffenburg, Germany"
Europe,Ireland,53.3497645,-6.2602732,"Dublin, Ireland"
Europe,Netherlands,52.0749456,4.2696802,"Den Haag, Netherlands"
Europe,Croatia,45.813177,15.977048,"Zagreb, Croatia"
North America,USA,35.4492404,-86.7888887,"Lewisburg, Tennessee"
North America,USA,42.6709176,-72.5495336,"Bernardston, Massachusetts"
North America,USA,34.8879397,-79.3661515,"Wagram, North Carolina"
South America,Brazil,-22.0183367,-47.890932,"Sao Carlos, Brazil"
North America,USA,42.3192548,-85.1824269,"Battle Creek, Michigan"
North America,USA,34.1361187,-117.865339,"Glendora, California"
Asia,PRC,31.2252985,121.4890497,"Shanghai, China"
Europe,Slovenia,46.509144,15.0790677,"Slovenj Gradec, Slovenia"
Asia,Turkey,40.6556669,29.2729091,"Yalova, Turkey"
Europe,Greece,39.5560869,21.7678844,"Trikala, Greece"
Europe,France,47.0617293,-0.8801349,"Cholet, France"
North America,USA,42.2942045,-83.3099303,"Inkster, Michigan"
Europe,Croatia,44.8701965,13.8455407,"Pula, Croatia"
North America,USA,39.1888874,-95.5697001,"Meriden, Kansas"
North America,USA,37.7781702,-81.1881557,"Beckley, West Virginia"
Asia,Georgia,41.6934591,44.8014495,"Tbilisi, Georgia"
Europe,Czechia,50.0385812,15.7791356,"Pardubice, Czech Republic"
South America,Brazil,-23.5506507,-46.6333824,"San Paulo, Brazil"
Europe,Serbia,45.3802683,20.3907614,"Zrenjanin, Serbia"
North America,USA,40.1481349,-89.3636569,"Lincoln, Illinois"
North America,USA,30.5182727,-82.94819,"Jasper, Florida"
Europe,France,46.0,2.0,"Cormeille-en-Parisis, France"
North America,USA,30.3960318,-88.8853645,"Biloxi, Mississippi"
Europe,Netherlands,51.9228934,4.4631786,"Rotterdam, Netherlands"
North America,USA,45.7813532,-122.5337433,"Battle Ground, Washington"
North America,USA,38.6249949,-90.1594531,"East St. Louis, Missouri"
South America,Brazil,-20.720278,-47.886667,"Orlandia, Brazil"
North America,USA,42.4966815,-96.4058782,"Sioux City, Iowa"
North America,USA,42.9132581,-85.7057035,"Wyoming, Michigan"
Europe,Poland,51.7687323,19.4569911,"Lodz, Poland"
Europe,Spain,41.9302021,2.2545943,"Vic, Spain"
Europe,Serbia,45.2551338,19.8451756,"Novi Sad, Serbia"
North America,USA,33.4503998,-88.8183872,"Starkville, Mississippi"
North America,USA,34.09751,-117.6483876,"Upland, California"
Europe,Netherlands,51.7202611,5.3648561,"Nederland, Texas"
North America,France,16.2706436,-61.5057749,"Les Abymes, Guadeloupe"
Europe,B&H,43.3416104,17.8030427,"Mostar, Bosnia and Herzegovina"
North America,USA,47.6742994,-116.7811531,"Coeur d'Alene, Idaho"
Europe,Lithuania,54.5562536,23.3503665,"Marijampole, Lithuania"
North America,USA,38.8035961,-76.9896573,"Oxon Hill, Maryland"
South America,Brazil,-25.4295963,-49.2712724,"Curitiba, Brazil"
Europe,Latvia,56.9493977,24.1051846,"Riga, Latvia"
North America,USA,29.2108147,-81.0228331,"Daytona, Florida"
North America,USA,43.207178,-71.537476,"Concord, New Hampshire"
North America,USA,42.6511674,-73.754968,"Albany, New York"
North America,USA,43.0072424,-96.0583138,"Orange City, Iowa"
South America,Argentina,-31.6186951,-60.7019561,"Santa Fe, Argentina"
Africa,South Sudan,7.6999269,27.9910035,"Wow, South Sudan"
North America,USA,30.6338092,-92.4192993,"Mamou, Louisiana"
North America,D.R.,18.5116478,-69.4799563,"San Pedro de Macoris, Dominican Republic"
North America,USA,38.9742502,-94.6851702,"Overland Park, Kansas"
North America,USA,31.5536678,-90.1072865,"Monticello, Mississippi"
Asia,Russia,55.0282171,82.9234509,"Novosibirsk, Russia"
North America,USA,43.3235158,-99.8941094,"Tripp, South Dakota"
Asia,South Korea,37.5666791,126.9782914,"Seoul, Republic of Korea"
Asia,Japan,35.444991,139.636768,"Yokohama, Japan"
Europe,Slovenia,46.2309234,15.2659932,"Celje, Slovenia"
South America,Brazil,-22.9213991,-43.1882138,"Santa Teresa, Brazil"
North America,USA,38.4210209,-121.4238414,"Laguna, California"
Europe,Slovenia,46.555628,15.64477,"Maribor, Slovenia"
North America,USA,34.2006479,-90.5702071,"Clarksdale, Mississippi"
South America,Uruguay,-34.9059039,-56.1913569,"Montevideo, Uruguay"
North America,USA,40.3334409,-74.6004341,"Plainsboro, New Jersey"
Europe,Spain,38.9736819,-5.8003669,"Villanueva de la Serena, Spain"
North America,USA,43.7748763,-88.4458033,"Fond du Lac, Wisconsin"
North America,USA,34.178216,-79.4006069,"Marion, South Carolina"
North America,USA,41.0339862,-73.7629097,"White Plains, New York"
North America,USA,41.5538091,-73.0438362,"Waterbury, Connecticut"
North America,USA,37.7249296,-122.1560768,"San Leandro, California"
North America,USA,37.6390972,-120.9968782,"Modesto, California"
Europe,Lithuania,55.7127529,21.1350469,"Klaipeda, Lithuania"
North America,USA,35.6009498,-82.5540161,"Asheville, North Carolina"
Europe,Russia,51.530018,46.034683,"Saratov, Russia"
South America,Argentina,-31.874029,-62.7160986,"Las Varillas, Argentina"
North America,USA,29.5293998,-95.2010447,"Friendswood, Texas"
Oceania,Australia,-35.2841955,138.6261912,"Hope Forest, Australia"
North America,USA,39.3113257,-94.922759,"Leavenworth, Kansas"
North America,France,14.6776144,-60.939021,"Le Robert, Martinique"
North America,USA,32.7918133,-93.055718,"Homer, Louisiana"
North America,USA,40.1728871,-74.9926688,"Holland, Pennsylvania"
North America,USA,39.2699565,-81.5506916,"Parkersburg, West Virginia"
North America,USA,34.3435092,-119.2956042,"Ventura, California"
North America,USA,41.289811,-73.9204922,"Peekskill, New York"
North America,USA,40.5834557,-74.1496048,"Staten Island, New York"
Europe,Italy,41.894802,12.4853384,"Rome, Italy"
North America,USA,39.3762145,-77.154704,"Mount Airy, Maryland"
North America,France,16.2328276,-61.7896133,"Pointe Noire, Guadeloupe"
Europe,Greece,35.5120831,24.0191544,"Hania, Greece"
South America,Argentina,33.7456,61.969,"Venado Tuerto, Argentina"
Europe,B&H,44.5391105,18.675193,"Tuzla, Bosnia and Herzegovina"
Asia,Turkey,39.7666813,30.5255947,"Eskisehir, Turkey"
North America,USA,28.8518171,-81.7108553,"Eustis, Florida"
North America,USA,38.8853963,-76.9159441,"Capitol Heights, Maryland"
North America,USA,29.6185669,-95.5377215,"Missouri City, Texas"
North America,USA,47.10529,-104.71246,"Glendive, Montana"
North America,USA,42.2830786,-87.9531303,"Libertyville, Illinois"
North America,USA,41.2963365,-92.6449612,"Oskaloosa, Iowa"
North America,USA,34.0739016,-117.3136547,"Colton, California"
North America,USA,40.6022059,-75.4712794,"Allentown, Pennsylvania"
Europe,Spain,28.2935785,-16.6214471,"Tenerife, Spain"
Europe,Switzerland,46.4602978,6.8418655,"Vevey, Switzerland"
North America,USA,33.9732275,-78.3858371,"Shallotte, North Carolina"
Europe,Greece,39.6383092,22.4160706,"Larissa, Greece"
North America,USA,34.7691867,-84.9702475,"Dalton, Georgia"
Europe,Italy,44.4936714,11.3430347,"Bologna, Italy"
North America,USA,36.5817089,-86.5163833,"Portland, Tennessee"
North America,USA,36.0625843,-94.1574328,"Fayetteville, Arkansas"
North America,USA,18.465299,-66.116666,"San Juan, Puerto Rico"
Europe,Ukraine,48.4680221,35.0417711,"Dnepropetrovsk, Ukraine"
North America,USA,34.1715875,-118.5428414,"Tarzana, California"
North America,USA,32.0073898,-97.1248321,"Hillsboro, Texas"
North America,D.R.,19.7444333,-70.8000756,"Puerto Plata, Dominican Republic"
Asia,PRC,22.663757,112.800109,"He Shan, China"
North America,USA,47.5048851,-111.2918908,"Great Falls, Montana"
Africa,Gabon,-0.7149116,8.7797434,"Port-Gentil, Gabon"
Europe,France,49.4404591,1.0939658,"Rouen, France"
North America,USA,33.0604215,-86.0516887,"Goodwater, Alabama"
Europe,Ukraine,48.0158753,37.8013407,"Donetsk, Ukraine"
Europe,Croatia,45.5548927,18.6953157,"Osijek, Croatia"
South America,Argentina,-34.6075682,-58.4370894,"Buenos Aires, Argentina"
North America,USA,33.6956461,-78.8900409,"Myrtle Beach, South Carolina"
North America,USA,42.2912093,-71.1244966,"Roslindale, Massachusetts"
North America,USA,32.4586695,-83.7319658,"Perry, Georgia"
North America,USA,28.6000625,-81.3427438,"Winter Park, Florida"
Europe,France,45.4401467,4.3873058,"Saint-Etienne, France"
Asia,Taiwan,22.6203348,120.3120375,"Kaohsiung, Taiwan"
Europe,France,49.1460831,0.2255168,"Lisieux, France"
North America,USA,61.2163129,-149.8948523,"Anchorage, Alaska"
Europe,Spain,39.5695818,2.6500745,"Palma de Mallorca, Spain"
Europe,Italy,45.238067,9.408656,"Sant'Angelo Lodigiano, Italy"
Asia,Iran,31.3229936,48.6793316,"Ahvaz, Islamic Republic of Iran"
North America,USA,37.6792135,-95.4572034,"Chanute, Kansas"
Oceania,Australia,-33.8548157,151.2164539,"Sydney, Australia"
North America,USA,33.7123305,-84.1051939,"Lithonia, Georgia"
North America,USA,34.1729044,-118.3740371,"North Hollywood, California"
North America,USA,31.318017,-95.4572993,"Crockett, Texas"
Europe,Germany,51.5,10.5,"Worzbach, Germany"
North America,USA,27.7703796,-82.6695085,"St. Petersburg, Florida"
North America,USA,37.2166779,-93.2920373,"Springfield, Missouri"
North America,USA,42.6829765,-89.0226793,"Janesville, Wisconsin"
Asia,PRC,39.0000001,116.0,"Hebei, China"
North America,France,16.2408636,-61.5334077,"Pointe-a-Pitre, Guadeloupe"
North America,USA,48.0074736,-121.7304882,"Snohomish, Washington"
Asia,Israel,32.0193121,34.7804076,"Holon, Israel"
North America,USA,40.6337136,-74.4073737,"Plainfield, New Jersey"
North America,USA,34.1033192,-117.5751735,"Rancho Cucamonga, California"
North America,USA,38.7651145,-76.8983059,"Clinton, Maryland"
North America,USA,36.4393192,-77.4444183,"Pleasant Grove, North Carolina"
North America,USA,33.5215013,-84.3538128,"Jonesboro, Georgia"
North America,USA,40.0028514,-75.2707469,"Wynnewood, Pennsylvania"
North America,USA,36.7568327,-90.3957115,"Poplar Bluff, Missouri"
North America,USA,34.2595715,-118.6023247,"Chatsworth, California"
Africa,Congo-Brazzaville,-0.7264327,15.6419155,"Brazzaville, Republic of the Congo"
North America,USA,32.8997997,-105.9603398,"Alamogordo, New Mexico"
Europe,Sweden,57.5080076,12.6970568,"Kinna, Sweden"
North America,USA,41.139981,-104.820246,"Cheyenne, Wyoming"
North America,USA,33.9412127,-84.2135309,"Norcross, Georgia"
North America,USA,39.8428215,-82.805646,"Canal Winchester, Ohio"
Africa,Tanzania,-6.8160837,39.2803583,"Dar es Salaam, United Republic of Tanzania"
Africa,Nigeria,10.3825318,7.8533226,"Kaduna, Nigeria"
North America,USA,44.7677424,-93.2777226,"Burnsville, Minnesota"
North America,USA,33.20763,-92.6662674,"El Dorado, Arkansas"
Asia,Turkey,40.182737,29.0678352,"Bursa, Turkey"
North America,USA,40.6409041,-74.3836416,"Fanwood, New Jersey"
North America,USA,26.8200607,-80.6653351,"Pahokee, Florida"
North America,USA,33.1281779,-91.9612427,"Crossett, Arkansas"
North America,USA,34.5793131,-118.1171108,"Palmdale, California"
Europe,Belgium,51.0538286,3.7250121,"Gent, Belgium"
North America,USA,33.6534427,-84.4493725,"College Park, Georgia"
Europe,Russia,59.938732,30.316229,"St. Petersburg, Russia"
North America,USA,33.4151117,-111.8314773,"Mesa, Arizona"
North America,USA,29.5571825,-95.8085623,"Rosenberg, Texas"
North America,Jamaica,18.3680645,-77.604408,"Trelawny, Jamaica"
North America,USA,27.4467056,-80.3256056,"Fort Pierce, Florida"
South America,France,4.9371143,-52.3258307,"Cayenne, French Guiana"
South America,Brazil,-26.3044898,-48.8486726,"Joinville, Brazil"
Europe,France,48.1762534,-2.7535644,"Loudeac, France"
North America,USA,35.6571367,-97.4649038,"Edmond, Oklahoma"
North America,USA,40.2114978,-74.7879399,"Morrisville, Pennsylvania"
North America,Mexico,21.5044414,-104.8946667,"Tepic, Mexico"
Africa,DR Congo,-11.6642316,27.4826264,"Lubumbashi, Democratic Republic of the Congo"
North America,USA,40.3042778,-73.9923596,"Long Branch, New Jersey"
North America,USA,38.8898478,-94.5313816,"Grandview, Missouri"
North America,USA,42.0911853,-76.5499445,"Lockwood, New York"
North America,USA,43.3081808,-73.642037,"Glens Falls, New York"
North America,USA,34.2978794,-83.8240663,"Gainesville, Georgia"
North America,USA,38.7946252,-90.519829,"St. Charles, Missouri"
North America,USA,37.8215929,-121.9999606,"Danville, California"
North America,USA,39.3398404,-74.5751484,"Linwood, New Jersey"
Europe,Italy,45.9562503,12.6597197,"Pordenone, Italy"
Europe,Switzerland,47.3723941,8.5423328,"Zurich, Switzerland"
North America,USA,44.9863892,-93.5715908,"Long Lake, Minnesota"
North America,USA,28.654276,-81.3237907,"Casselberry, Florida"
North America,USA,26.1667184,-80.2085565,"Lauderdale Lakes, Florida"
North America,USA,43.0494122,-88.0079271,"Wauwatosa, Wisconsin"
North America,USA,43.5391527,-89.0067778,"Randolph, Wisconsin"
North America,USA,38.951883,-92.3337366,"Columbia, Missouri"
Europe,Czechia,49.8349139,18.2820084,"Ostrava, Czech Republic"
Europe,Switzerland,46.5093268,6.498317,"Morges, Switzerland"
North America,USA,39.7972788,-84.3113334,"Trotwood, Ohio"
North America,USA,37.9485356,-122.5247031,"Greenbrae, California"
Oceania,New Zealand,-38.661326,178.0206487,"Gisborne, New Zealand"
North America,USA,36.1796007,-77.2235757,"Kelford, North Carolina"
Europe,Spain,39.4699014,-0.3759513,"Valencia, Spain"
North America,USA,33.732052,-84.9191081,"Villa Rica, Georgia"
Africa,Nigeria,6.3330586,5.6221058,"Benin City, Nigeria"
Europe,France,45.6707392,3.237799,"Saint-Maurice, France"
Europe,United Kingdom,51.2102305,-0.7981515,"Farnham, United Kingdom"
North America,USA,32.7529512,-117.1835214,"Mission Hills, California"
North America,USA,36.600256,-121.8946388,"Monterey, California"
North America,USA,33.8062166,-84.1457505,"Stone Mountain, Georgia"
Europe,Ukraine,46.4873195,30.7392776,"Odessa, Ukraine"
North America,USA,37.5455191,-77.4234124,"Henrico Valley, Virginia"
North America,USA,38.6581723,-77.2497049,"Woodbridge, Virginia"
North America,USA,38.5676202,-77.3280382,"Dumfries, Virginia"
South America,Brazil,-10.0,-55.0,"Juiz de Forz, Brazil"
North America,USA,38.6411854,-83.744365,"Maysville, Kentucky"
North America,Canada,43.590338,-79.645729,"Mississauga, Canada"
Europe,Germany,51.264018,7.1780374,"Wuppertal, Germany"
South America,Argentina,-32.2374316,-63.6619456,"Rio Tercero, Argentina"
Europe,Russia,50.595299,36.586933,"Belgorod, Russia"
Europe,Lithuania,55.4984381,25.6025772,"Utena, Lithuania"
North America,USA,38.8462236,-77.3063733,"Fairfax, Virginia"
North America,USA,36.3302284,-119.2920585,"Visalia, California"
Oceania,New Zealand,-38.1381493,176.252922,"Rotorua, New Zealand"
Europe,Macedonia,41.66667,21.75,"Skopje, FYR Macedonia"
North America,USA,32.701939,-97.1056248,"Arlington, Texas"
North America,USA,34.02332,-84.360022,"Roswell, Georgia"
North America,USA,42.6362052,-70.8431049,"Hamilton, Massachusetts"
North America,USA,41.8814197,-87.883117,"Bellwood, Illinois"
Europe,Italy,45.7759956,12.0450646,"Montebelluna, Italy"
North America,USA,34.6981064,-118.1366153,"Lancaster, California"
Oceania,Australia,-25.537583,152.7019182,"Maryborough, Australia"
Africa,Senegal,15.3688735,-16.4429778,"Kebemer, Senegal"
South America,Brazil,-30.0324999,-51.2303767,"Porto Alegre, Brazil"
North America,USA,36.1635362,-115.2071118,"Las Vegas, Arizona"
North America,USA,33.937517,-117.2305944,"Moreno Valley, California"
Europe,France,49.8465253,3.2876843,"Saint-Quentin, France"
North America,Mexico,28.5000001,-106.0000001,"Chihuahua, Mexico"
North America,USA,33.6170092,-117.9294401,"Newport Beach, California"
Europe,Germany,49.3165553,8.433615,"Speyer, Germany"
North America,USA,41.4730948,-87.0611412,"Valparaiso, Indiana"
North America,USA,41.4266361,-73.6788272,"Carmel, New York"
Europe,B&H,43.1507232,17.8338683,"Doboj, Bosnia and Herzegovina"
Europe,Ukraine,48.1164285,39.0886375,"Antratsit, Ukraine"
Asia,Israel,32.0877639,34.8859985,"Petah Tikva, Israel"
Europe,France,45.6963425,4.735948,"Lyon, France"
North America,USA,44.9475726,-93.3569023,"St. Louis Park, Minnesota"
Europe,Serbia,43.4581536,19.8156208,"Nova Varos, Serbia"
North America,USA,38.9670551,-76.8619166,"Lanham, Maryland"
Europe,Germany,52.2646577,10.5236066,"Braunschweig, Germany"
North America,USA,33.8644291,-118.0539323,"Cerritos, California"
North America,USA,45.5616075,-94.1642004,"St. Cloud, Minnesota"
Asia,Turkey,38.4219753,27.1541413,"Konak, Turkey"
Oceania,Australia,-27.4689682,153.0234991,"Brisbane, Australia"
North America,USA,38.7135498,-77.795367,"Warrenton, Virginia"
North America,Canada,50.000678,-86.000977,"Ontario, Canada"
South America,Brazil,-23.5324859,-46.7916801,"Osasco, Brazil"
North America,USA,41.4459142,-74.4224265,"Middletown, New York"
North America,Canada,43.6858146,-79.7599337,"Brampton, Canada"
North America,USA,39.9555928,-86.0138729,"Fishers, Indiana"
North America,USA,47.8012197,-120.6276904,"Chelan, Washington"
Oceania,Australia,-35.0765679,138.5757472,"Happy Valley, Australia"
North America,USA,33.6633386,-117.903317,"Costa Mesa, California"
North America,USA,33.4255056,-111.9400125,"Tempe, Arizona"
North America,USA,47.9078244,-97.0592028,"Grand Forks, North Dakota"
North America,USA,35.8814009,-106.2989958,"Los Alamos, New Mexico"
Europe,France,47.7467,7.3389275,"Mulhouse, France"
North America,USA,47.4799078,-122.2034496,"Renton, Washington"
North America,USA,42.5803122,-83.0302033,"Sterling Heights, Michigan"
North America,USA,41.6105938,-87.0641992,"Chesterton, Indiana"
North America,USA,32.5276503,-92.7140403,"Grambling, Louisiana"
Europe,Montenegro,42.4415238,19.2621081,"Podgorica, Montenegro"
North America,USA,42.3248426,-71.0950158,"Roxbury, Massachusetts"
North America,USA,42.4250964,-71.066163,"Malden, Massachusetts"
South America,Brazil,-22.8219014,-43.0309252,"Sao Goncalo, Brazil"
North America,USA,33.7440023,-90.7248187,"Cleveland, Mississippi"
North America,USA,29.9146493,-90.0539604,"Gretna, Louisiana"
North America,USA,33.0283854,-97.0867203,"Flower Mound, Texas"
North America,USA,42.7777829,-71.0767724,"Haverhill, Massachusetts"
North America,USA,42.2178171,-85.8911246,"Paw Paw, Michigan"
North America,USA,38.0951338,-76.8274659,"Montross, Virginia"
North America,USA,37.8500191,-99.7567932,"Spearville, Kansas"
North America,USA,40.7323235,-74.2348684,"Irvington, New Jersey"
North America,USA,35.756467,-84.2179718,"Antioch, Tennessee"
North America,USA,42.4153739,-71.1564428,"Arlington, Massachusetts"
North America,USA,43.7508284,-87.71453,"Sheboygan, Wisconsin"
South America,Brazil,-22.2343858,-45.9327241,"Pouso Alegre, Brazil"
Europe,Croatia,42.6499651,18.093652,"Dubrovnik, Croatia"
North America,USA,40.6178915,-75.3786521,"Bethlehem, Pennsylvania"
North America,USA,41.5894753,-88.057837,"Lockport, Illinois"
South America,Brazil,-23.5506507,-46.6333824,"Sao Paulo, Brazil"
North America,USA,29.5376944,-95.1220967,"Webster, Texas"
Europe,Serbia,45.7727669,19.114626,"Sombor, Serbia"
North America,USA,41.8616956,-88.1609031,"Winfield, Illinois"
Asia,Russia,56.488712,84.952324,"Tomsk, Russia"
North America,Canada,52.131802,-106.660767,"Saskatoon, Canada"
Europe,Serbia,43.9028683,22.2784785,"Zajecar, Serbia"
Africa,Tunisia,36.5013895,8.7811635,"Jendouba, Tunisia"
South America,Brazil,-19.9227318,-43.9450948,"Belo Horizonte, Brazil"
North America,USA,40.03813,-76.3056686,"Lancaster, Pennsylvania"
Europe,Germany,50.9929303,7.1277379,"Bergisch Gladbach, Germany"
Europe,Latvia,56.5048435,21.0070903,"Liepaja, Latvia"
North America,USA,41.1035786,-80.6520161,"Youngstown, Ohio"
Africa,Cape Verde,15.2272182,-23.1563014,"Maio, Cape Verde"
North America,USA,40.5382375,-74.3945173,"Edison, New Jersey"
North America,USA,32.844017,-97.1430671,"Bedford, Texas"
North America,USA,38.8791783,-99.3267702,"Hays, Kansas"
North America,USA,40.4667713,-74.6607144,"Belle Mead, New Jersey"
Europe,B&H,43.113402,17.7051041,"Capljina, Bosnia and Herzegovina"
Europe,Latvia,57.5391883,25.4216251,"Valmiera, Latvia"
Africa,Mali,14.443406,-11.437914,"Kayes, Mali"
North America,USA,41.3556187,-72.0997804,"New London, Connecticut"
North America,USA,45.5027976,-91.7331646,"Rice Lake, Wisconsin"
Africa,Cameroon,3.8689867,11.5213344,"Yaounde, Cameroon"
North America,The Bahamas,26.535681,-78.6953623,"Freeport, Bahamas"
Europe,Lithuania,54.6870458,25.2829111,"Vilnius, Lithuania"
North America,USA,42.194543,-71.1994976,"Norwood, Massachusetts"
Europe,France,43.5515198,7.0134418,"Cannes, France"
North America,USA,38.9340002,-76.8966397,"Landover, Maryland"
North America,Canada,43.453168,-80.494423,"Kitchener, Canada"
Africa,Senegal,14.582622,-17.034832,"Sindia, Senegal"
North America,USA,42.7070354,-71.1631137,"Lawrence, Massachusetts"
Europe,Greece,38.0546653,23.8081533,"Amarousio, Greece"
Europe,Austria,48.2083537,16.3725042,"Vienna, Austria"
North America,USA,41.5094771,-90.5787477,"Rock Island, Illinois"
Europe,Czechia,50.0874654,14.4212535,"Prague, Czech Republic"
Africa,Cameroon,4.0537386,9.6644366,"Douala, Cameroon"
North America,USA,37.6688205,-122.0807964,"Hayward, California"
North America,USA,43.150094,-77.6810141,"Monroe, New York"
North America,USA,36.3049177,-86.621443,"Hendersonville, Tennessee"
Europe,Germany,49.4093582,8.694724,"Heidelberg, Germany"
